,Time,header.seq,header.stamp.secs,header.stamp.nsecs,header.frame_id,pose.position.x,pose.position.y,pose.position.z,pose.orientation.x,pose.orientation.y,pose.orientation.z,pose.orientation.w,data
488,1731011837.6509328,4600155,1731011837,650236357,,-0.0469358185020697,0.033003545122869,0.0328568576549754,-8.016970621902028e-06,-1.5442493119242138e-05,0.9030817156554994,0.4294687585214753,begin_weld
489,1731011837.71122,4600156,1731011837,710233672,,-0.0461877235911271,0.0329292938654396,0.0328690003958858,-6.907862568355436e-05,-0.000148143287735,0.9030681530823372,0.4294972458237258,begin_weld
490,1731011837.770981,4600157,1731011837,770233875,,-0.0457414062905075,0.0327509341973777,0.0328922308034205,-9.730817707737376e-05,-9.713649606250235e-05,0.9030282978827774,0.4295810451108774,begin_weld
491,1731011837.83102,4600158,1731011837,830234227,,-0.0453317273206375,0.0325233977372828,0.0329227158174187,-0.0001214529698986,3.4621000641302365e-06,0.902976010923333,0.4296909458368591,begin_weld
492,1731011837.890117,4600159,1731011837,889245309,,-0.0448163082910887,0.0324575479550935,0.0329328259263382,-0.00015985729462,-6.296671820721636e-05,0.902976100231906,0.4296907409879999,begin_weld
493,1731011837.950574,4600160,1731011837,949259669,,-0.0443483815935536,0.0323218929719557,0.032951856576731,-0.0001904285971204,-5.783210985630614e-05,0.9029538194611968,0.4297375481765969,begin_weld
494,1731011838.0113678,4600161,1731011838,10231826,,-0.0438391909031127,0.0322369923733773,0.0329598535127658,-0.0002177864491563,-0.000104155076049,0.9029528509638844,0.4297395614287515,begin_weld
495,1731011838.0708115,4600162,1731011838,70236770,,-0.0434759959085375,0.0322358493260248,0.0328506773344093,7.066913389671678e-06,-3.3864299043847505e-05,0.903047598973951,0.4295404902807768,begin_weld
496,1731011838.1310794,4600163,1731011838,130232134,,-0.0430317071659151,0.0320552864141003,0.0328680201450585,-1.9243904964653272e-05,8.514065553363807e-06,0.9030190097889296,0.4296005906851198,begin_weld
497,1731011838.1908865,4600164,1731011838,190234446,,-0.0425393362353137,0.0319391257945697,0.0328821143812562,-4.8934665762112726e-05,-7.146326585691116e-06,0.9030187493075776,0.429601135884563,begin_weld
498,1731011838.2511957,4600165,1731011838,250237478,,-0.0420922385673594,0.0318111280042261,0.0328794287948337,-3.664945263278245e-05,5.311909072443933e-06,0.9030146483721044,0.4296097571680671,begin_weld
499,1731011838.31083,4600166,1731011838,310233049,,-0.0416544155267253,0.0317508270418847,0.0328343618715638,4.991124281371625e-05,9.948653867552391e-06,0.9030576425310736,0.4295193728763721,begin_weld
500,1731011838.3717637,4600167,1731011838,370235365,,-0.0411827211086124,0.0315939688063545,0.0328510851642158,1.5663249694844447e-05,3.934598816352129e-06,0.9030419522162804,0.4295523626714103,begin_weld
501,1731011838.430067,4600168,1731011838,429248524,,-0.0407107543317431,0.0314451668621514,0.0328686529892223,-2.090094155805805e-05,-1.259495222875789e-05,0.9030312297694788,0.4295749032072763,begin_weld
502,1731011838.4910023,4600169,1731011838,490232270,,-0.0402346713358898,0.0312736289819402,0.0328818596479021,-4.3846971193183234e-05,-2.163609482748512e-06,0.903020282111997,0.4295979145283776,begin_weld
503,1731011838.5509112,4600170,1731011838,550239218,,-0.0398255352139977,0.0311222500489518,0.0328629986002007,-1.722722777755948e-06,3.722534381145232e-05,0.9030224642367318,0.4295933282711993,begin_weld
504,1731011838.6110537,4600171,1731011838,610233640,,-0.0393276561998041,0.0310033709123132,0.0328697319150732,-2.2553996975705214e-05,2.782039969375682e-06,0.9030323856390644,0.4295724734786875,begin_weld
505,1731011838.671085,4600172,1731011838,670233957,,-0.0389112521069066,0.030841723387643,0.0328581509500368,8.629141767660665e-06,1.9420733147222965e-05,0.9030233293729564,0.4295915108059677,begin_weld
506,1731011838.7311988,4600173,1731011838,730233706,,-0.0384261428059137,0.0307165575060311,0.0328534411956739,5.058445842666758e-06,-1.2760450879076552e-05,0.9030422293345436,0.4295517801733343,begin_weld
507,1731011838.7908592,4600174,1731011838,790234286,,-0.0379860595993559,0.03052194738336,0.0328632778732418,-1.182546430685474e-05,-9.073293294100762e-06,0.9030213738328046,0.4295956216943418,begin_weld
508,1731011838.8520577,4600175,1731011838,850243222,,-0.0375456939720747,0.0303608524355992,0.032855681780297,7.741543838560845e-06,4.83057899218013e-06,0.9030295111396764,0.429578516603858,begin_weld
509,1731011838.9102216,4600176,1731011838,909256706,,-0.0371050086214618,0.0301940583013047,0.032856934354775,9.31533756659372e-06,1.266971496967262e-05,0.9030309550501464,0.4295754811135327,begin_weld
510,1731011838.9710505,4600177,1731011838,970231612,,-0.0366229958582667,0.0300294826336759,0.0328692321802149,-2.2502921239685853e-05,-1.6902176670580375e-05,0.9030254718228612,0.4295870068414943,begin_weld
511,1731011839.0300858,4600178,1731011839,29249681,,-0.0361902626378522,0.0298481898530366,0.0328683535253468,-1.1965052384642546e-05,7.878185705364819e-06,0.903026425860295,0.4295850020575123,begin_weld
512,1731011839.0910182,4600179,1731011839,90232346,,-0.0357454886603904,0.0296933730727678,0.032854083747915,1.053495140982567e-05,-7.810357602104082e-06,0.903039380738986,0.4295577687140131,begin_weld
513,1731011839.151034,4600180,1731011839,150236411,,-0.0352919683009211,0.0294793146232394,0.0328663949194615,-1.209350101195374e-05,8.767359648494082e-06,0.9030357423732314,0.4295654173386256,begin_weld
514,1731011839.2113795,4600181,1731011839,210246694,,-0.034858681503209,0.0293029263817212,0.0328611770294226,-3.2030187999019243e-06,9.268812824600304e-07,0.9030376438464888,0.429561420270796,begin_weld
515,1731011839.2709236,4600182,1731011839,270233170,,-0.0344154061105734,0.0291455193754268,0.0328476897453167,2.3795969470962003e-05,-1.0807134510933413e-05,0.9030515122248768,0.4295322637303522,begin_weld
516,1731011839.331714,4600183,1731011839,330241622,,-0.0339622204293319,0.0289311226443301,0.0328673782431521,-1.5594050501713895e-05,-1.9573791880068497e-05,0.9030278165571596,0.4295820781849511,begin_weld
517,1731011839.3902843,4600184,1731011839,389257634,,-0.0335265152636858,0.0287100942984196,0.0328798844584121,-4.0586551878320726e-05,-1.24752519619992e-05,0.9030171392939196,0.4296045208543849,begin_weld
518,1731011839.4513,4600185,1731011839,450234781,,-0.0331188536282956,0.0285169828683385,0.0328532360126637,1.2882428334567418e-05,1.7419792848850074e-05,0.9030389034740672,0.4295587716982952,begin_weld
519,1731011839.5111685,4600186,1731011839,510234776,,-0.0326587228949559,0.0283197095409821,0.032867100734761,-1.6593318321815998e-05,-1.947007728349924e-05,0.9030314995986728,0.4295743359165561,begin_weld
520,1731011839.5709786,4600187,1731011839,570233209,,-0.0322545885454712,0.0280869225960367,0.0328603743632928,5.52241705579072e-06,1.4291419755960824e-05,0.9030263808537964,0.4295850966308687,begin_weld
521,1731011839.631196,4600188,1731011839,630233703,,-0.0318104391866373,0.0279060479140049,0.0328529308486066,6.973142719910382e-06,-1.3485064432950815e-05,0.9030394975297158,0.4295575231221155,begin_weld
522,1731011839.6913934,4600189,1731011839,690263866,,-0.0313851306137503,0.027645405913653,0.0328686560704127,-1.515888702167372e-05,1.2977953353992162e-05,0.9030178384006744,0.4296030529825811,begin_weld
523,1731011839.7512438,4600190,1731011839,750236530,,-0.0309579967152016,0.0274560363916862,0.0328616729597894,-4.864695236033687e-06,-9.26983618122954e-06,0.9030300340274898,0.4295774173937867,begin_weld
524,1731011839.8116913,4600191,1731011839,810293588,,-0.0305251570259722,0.0272203141298938,0.0328642888069911,-1.0422053787352437e-05,-6.436195110345766e-06,0.903029868812014,0.429577764651888,begin_weld
525,1731011839.8701358,4600192,1731011839,869270723,,-0.0301220516739822,0.0269904159216846,0.0328646695065888,-6.447825041918015e-06,3.1492947060781148e-06,0.90303096178181,0.4295754671904889,begin_weld
526,1731011839.9310873,4600193,1731011839,930232521,,-0.0296902913156393,0.0267589838066958,0.0328624932873131,-2.0631069375825315e-06,7.345168841526318e-06,0.9030362161006474,0.4295644216557242,begin_weld
527,1731011839.9909136,4600194,1731011839,990237619,,-0.0292667810511201,0.0265179050257639,0.0328700982189273,-2.239978212298438e-05,-5.980595081547798e-06,0.9030306870167104,0.4295760442210551,begin_weld
528,1731011840.0513268,4600195,1731011840,50235889,,-0.028854229749908,0.0262767279461804,0.0328632497596684,-6.09258245694153e-06,1.1319481152677516e-05,0.9030358010318223,0.429565294093418,begin_weld
529,1731011840.1109989,4600196,1731011840,110234140,,-0.0284238078772745,0.026056050939788,0.0328662926373456,-2.024007128969013e-05,-2.178613449083113e-05,0.9030346894016844,0.4295676301269771,begin_weld
530,1731011840.1712875,4600197,1731011840,170279061,,-0.0280235408839338,0.0257733962572041,0.0328745702174815,-2.698556567643014e-05,6.98557385895175e-06,0.9030255255670412,0.4295868938845204,begin_weld
531,1731011840.2308278,4600198,1731011840,230233739,,-0.0276381471170704,0.0255648375999545,0.0328450571845579,2.597967590865116e-05,-9.446338660528422e-06,0.9030430677657568,0.4295500168735116,begin_weld
532,1731011840.291386,4600199,1731011840,290262959,,-0.0272054204479176,0.0252840351356599,0.0328680852246384,-2.125440869947555e-05,-2.0158196017927315e-05,0.9030239022568168,0.4295903060996238,begin_weld
533,1731011840.350433,4600200,1731011840,349259542,,-0.0268170055322916,0.025027227601832,0.0328666130295629,-1.401286982745117e-05,-6.471312012447616e-06,0.9030228940579208,0.4295924261076061,begin_weld
534,1731011840.4111674,4600201,1731011840,410232740,,-0.0264155939760951,0.0247925528813377,0.0328481158622738,2.5247918141170613e-05,6.371605826592688e-06,0.9030465868087376,0.4295426188110263,begin_weld
535,1731011840.4711423,4600202,1731011840,470238432,,-0.0260067032296743,0.0244837146751134,0.0328721491998592,-2.263644632983427e-05,1.0610463628034955e-05,0.9030207256890465,0.4295969836381972,begin_weld
536,1731011840.530783,4600203,1731011840,530233217,,-0.0255931733500351,0.0242453438602593,0.0328648738338328,-1.943200138541477e-05,-2.3835938000118727e-05,0.9030285917661924,0.4295804482364306,begin_weld
537,1731011840.590927,4600204,1731011840,590233143,,-0.0252246620495871,0.0239398096569588,0.0328675899547166,-1.4371936724028026e-05,1.0643075641939306e-05,0.90302250531716,0.4295932431625201,begin_weld
538,1731011840.651588,4600205,1731011840,650363526,,-0.0248067928178816,0.0237014969124499,0.0328634521750393,-1.2788963494808722e-05,-2.312405278094074e-05,0.9030355446662154,0.4295658324065269,begin_weld
539,1731011840.7108226,4600206,1731011840,710237819,,-0.0244550600801964,0.0234120563196116,0.0328507781290828,2.6443573462093e-05,2.462131214308137e-05,0.9030433761601931,0.4295493679051668,begin_weld
540,1731011840.7706363,4600207,1731011840,769241504,,-0.0240321558414015,0.0231232713761847,0.0328734472648755,-2.809086727780878e-05,1.071193431767553e-06,0.9030295303698846,0.4295784753566005,begin_weld
541,1731011840.8302715,4600208,1731011840,829245465,,-0.0236634972423416,0.0228467815127111,0.0328637819511957,-7.205395229318877e-06,-2.646868685964483e-06,0.903030630797713,0.4295761629585152,begin_weld
542,1731011840.891174,4600209,1731011840,890232019,,-0.023266704182156,0.0225448887393035,0.032869212209548,-1.9207427230878717e-05,-8.841748336476633e-06,0.9030233249941758,0.4295915200156555,begin_weld
543,1731011840.9510298,4600210,1731011840,950249123,,-0.0229065875323991,0.0222609913229761,0.032856006243475,8.840695206201636e-06,7.143116268931166e-06,0.9030365077127432,0.4295638085416305,begin_weld
544,1731011841.0110478,4600211,1731011841,10232533,,-0.0225274499821894,0.0220022781748803,0.0328382892946453,4.096862967683751e-05,-2.862473773739403e-06,0.9030563313719376,0.4295221306084646,begin_weld
545,1731011841.0707974,4600212,1731011841,70233610,,-0.0221365108626901,0.0216633476826343,0.0328646795681131,-1.4168702476575494e-05,-1.082777918221234e-05,0.903022473456238,0.4295933101376057,begin_weld
546,1731011841.1313465,4600213,1731011841,130298160,,-0.0217814699818737,0.0213425910529245,0.0328610391346899,1.7071767127564472e-06,2.5175297419981305e-05,0.9030227104292936,0.4295928116393731,begin_weld
547,1731011841.1912582,4600214,1731011841,190237380,,-0.0213885497035862,0.0210614051945499,0.0328662081017199,-1.5805920040104905e-05,-1.1546070325312828e-05,0.9030290958853194,0.4295793891720177,begin_weld
548,1731011841.2512088,4600215,1731011841,249246986,,-0.021040535584694,0.0207346877780484,0.0328681426269144,-7.038455259274502e-06,1.8195906499020356e-05,0.90302942252388,0.4295787025395431,begin_weld
549,1731011841.3101127,4600216,1731011841,309253174,,-0.0206778027675142,0.0204492723241953,0.0328560209258553,8.028664436286049e-06,-6.681268215811302e-07,0.90303841015589,0.429559809244553,begin_weld
550,1731011841.371283,4600217,1731011841,370233694,,-0.0202976278544715,0.0201124687377138,0.032868150945275,-1.8191982163180866e-05,-7.803574719403981e-06,0.9030234219266422,0.4295913163229136,begin_weld
551,1731011841.4309516,4600218,1731011841,430234400,,-0.0199514268029389,0.0197954988772405,0.0328617069532821,8.829585269822673e-08,1.3556698163019508e-05,0.9030297825040238,0.4295779460434901,begin_weld
552,1731011841.491259,4600219,1731011841,490232844,,-0.0195937474540739,0.0195128460657394,0.0328484566256412,2.7041687071087443e-05,5.688045558346274e-07,0.9030523143103988,0.4295305773598152,begin_weld
553,1731011841.5511794,4600220,1731011841,550236105,,-0.0192233024536161,0.0191527900648161,0.032867187829324,-1.626302753702323e-05,-4.026690701233192e-06,0.9030319710036876,0.4295733453841084,begin_weld
554,1731011841.611086,4600221,1731011841,610273215,,-0.0189005428596718,0.0188344230464059,0.0328505305660717,1.529178531831873e-05,2.891743852739964e-06,0.9030363754593652,0.4295640864353207,begin_weld
555,1731011841.67075,4600222,1731011841,670234466,,-0.0185251751368444,0.0184814401181239,0.0328736348607062,-2.7653541433291716e-05,-7.456144781966e-06,0.903020674045797,0.4295970919659046,begin_weld
556,1731011841.7307994,4600223,1731011841,729253471,,-0.0182038498488775,0.0181758806394957,0.0328563369503611,7.692401639892985e-06,4.068107339646244e-06,0.903035939222566,0.4295650036917526,begin_weld
557,1731011841.790551,4600224,1731011841,789253388,,-0.0178251984327936,0.0178387136635744,0.0328746268474128,-3.291435488266657e-05,-2.6681891897058345e-05,0.9030237997791126,0.4295905204228962,begin_weld
558,1731011841.851266,4600225,1731011841,850234456,,-0.0174977411193657,0.0174998226233767,0.0328627823185239,-5.228660395984999e-06,-1.7137068256429974e-06,0.903031781993846,0.4295737430043221,begin_weld
559,1731011841.911079,4600226,1731011841,910234285,,-0.0171456200220068,0.0171497474244637,0.0328759295107106,-3.1951113835966776e-05,-1.8780346888719463e-05,0.9030157532930952,0.4296074346783687,begin_weld
560,1731011841.9708898,4600227,1731011841,970232618,,-0.0168354886661713,0.0168487146103716,0.0328398177110544,3.756977677560464e-05,4.95555726662623e-06,0.903046677834,0.429542426562185,begin_weld
561,1731011842.031073,4600228,1731011842,30233058,,-0.0164802354601124,0.0164734645165738,0.0328677977002868,-1.2718197473100429e-05,4.745352900247643e-06,0.9030278283603472,0.4295820538878738,begin_weld
562,1731011842.0904806,4600229,1731011842,89249803,,-0.0161413461794248,0.0161694568411466,0.0328528885033211,1.2164967948674352e-05,-1.626715400243924e-07,0.903045811838169,0.4295442486793756,begin_weld
563,1731011842.1501255,4600230,1731011842,149242501,,-0.0158199474574483,0.0158016486422416,0.03285895200872,4.536327435575291e-06,1.4306398376669148e-05,0.903029621677787,0.429578284073138,begin_weld
564,1731011842.2105975,4600231,1731011842,209267302,,-0.015461751592437,0.0154884356135321,0.0328576215240926,4.499876564151219e-06,-7.607790733071847e-06,0.9030418103529748,0.4295526611211884,begin_weld
565,1731011842.27014,4600232,1731011842,269243508,,-0.0151279398192057,0.015129651868949,0.0328604475993303,-1.0756414766677178e-06,4.647121807264221e-06,0.9030322881062752,0.429572679083287,begin_weld
566,1731011842.3310382,4600233,1731011842,330232102,,-0.014788550523826,0.0148082090222764,0.0328484198205027,1.6833013314738316e-05,-1.0156760328549104e-05,0.903038908557904,0.4295587611073009,begin_weld
567,1731011842.390902,4600234,1731011842,390233853,,-0.0144397424061444,0.014449068525561,0.0328599377514045,1.0559213761117397e-06,5.139796355097865e-07,0.9030331743935428,0.4295708159818846,begin_weld
568,1731011842.451229,4600235,1731011842,450235980,,-0.0141006006297862,0.0141084324668363,0.0328632385295915,-6.56693337321092e-06,-3.5380174359567653e-06,0.9030306315975422,0.4295761612809793,begin_weld
569,1731011842.5109746,4600236,1731011842,510234225,,-0.0137481911000625,0.0137737607857021,0.0328652678406498,-1.807160718457579e-05,-1.798753146500139e-05,0.9030274216560628,0.4295829082808917,begin_weld
570,1731011842.570232,4600237,1731011842,569262290,,-0.0134259876325487,0.0134324194563106,0.0328619335270894,-1.0463654000796096e-05,-3.0721675620961758e-06,0.9030278102850532,0.4295820919601468,begin_weld
571,1731011842.6309783,4600238,1731011842,630233132,,-0.0131374238612341,0.0131350176457342,0.0328132610965459,9.985079401273732e-05,3.515591117877693e-05,0.9030685365603874,0.4294964575739375,begin_weld
572,1731011842.690708,4600239,1731011842,689317158,,-0.0127703072164378,0.0127603435184949,0.0328494761524182,2.933759953298887e-05,1.6392007938184376e-05,0.9030378007176422,0.4295610891894788,begin_weld
573,1731011842.7502537,4600240,1731011842,749264661,,-0.0123996567750547,0.012391510214632,0.0328809028483657,-3.993026039796413e-05,-1.1072631888973958e-05,0.9030119860324944,0.4296153528036695,begin_weld
574,1731011842.8111477,4600241,1731011842,810232726,,-0.0120513678666475,0.0120781051687308,0.0328653479302258,-1.4857451423284284e-05,-1.6451718388202775e-05,0.903031953528226,0.4295733818750799,begin_weld
575,1731011842.8711832,4600242,1731011842,870236827,,-0.0117188987271887,0.0117136912559744,0.0328766488791875,-2.8775282305227428e-05,9.296771517260476e-07,0.9030231749566804,0.4295918349576438,begin_weld
576,1731011842.930936,4600243,1731011842,930232591,,-0.0114094073218434,0.011403412439957,0.0328435267180524,3.963074019595292e-05,2.923526297160821e-05,0.9030488724127635,0.4295378116170219,begin_weld
577,1731011842.9912913,4600244,1731011842,990233544,,-0.0110403687265472,0.0110484569091106,0.0328673284786031,-1.292473489673024e-05,3.578050098258889e-07,0.9030311866363968,0.42957499437803,begin_weld
578,1731011843.0504973,4600245,1731011843,49332851,,-0.0107385557220351,0.0107505955565828,0.0328368049317171,5.321011208681544e-05,1.898878285752568e-05,0.9030600370566482,0.4295143376877601,begin_weld
579,1731011843.1109543,4600246,1731011843,110233732,,-0.0103746193629787,0.0103666354442648,0.0328626754924595,5.795311667013518e-06,2.3284937979888855e-05,0.9030391785957012,0.429558193200208,begin_weld
580,1731011843.1703095,4600247,1731011843,169259891,,-0.0100340427675001,0.0100108003669814,0.0328765902125795,-2.8085311057090272e-05,1.7621138225860607e-05,0.903022498203287,0.4295932572089619,begin_weld
581,1731011843.2308354,4600248,1731011843,230249684,,-0.0096838319434941,0.009709559206851,0.0328570189493347,1.9459100294972195e-06,-5.344013865616381e-06,0.9030404829745096,0.4295554516902554,begin_weld
582,1731011843.290803,4600249,1731011843,290233545,,-0.0093255193239284,0.0093499808174235,0.0328742046168236,-4.022633585956632e-05,-2.588774169597269e-05,0.9030182494853924,0.4296021866890393,begin_weld
583,1731011843.3511035,4600250,1731011843,350238146,,-0.0090343172965288,0.0090203463357986,0.0328481003329494,2.6158383096662475e-05,1.9884280182773265e-05,0.9030394983608586,0.4295575203864125,begin_weld
584,1731011843.4110975,4600251,1731011843,410233050,,-0.0086732494496336,0.0086768491922893,0.0328599081111729,2.6027644082028724e-06,6.50528428482582e-06,0.903034176478252,0.4295687093622536,begin_weld
585,1731011843.4709723,4600252,1731011843,470233676,,-0.0083157847417044,0.0083421031226116,0.0328706070048633,-2.716724149362143e-05,-3.3238452796901755e-05,0.9030205173460908,0.4295974201611842,begin_weld
586,1731011843.530277,4600253,1731011843,529281437,,-0.0080051710599158,0.0080172391072478,0.0328526388960925,1.445088449239499e-05,-2.2253799903723755e-06,0.9030381672653102,0.4295603196855237,begin_weld
587,1731011843.590832,4600254,1731011843,590232940,,-0.0076429871011305,0.0076503011344437,0.032872120375898,-2.624675286288716e-05,-1.3577525235797032e-05,0.903021969231506,0.4295943693904889,begin_weld
588,1731011843.6504264,4600255,1731011843,649286603,,-0.0073403225627155,0.0073633900154297,0.0328345066528706,4.985578451486883e-05,6.872084429901869e-06,0.9030582864214276,0.4295180191712214,begin_weld
589,1731011843.711207,4600256,1731011843,710257717,,-0.0069555210274495,0.0069638757809772,0.0328621335114071,-5.073469311644346e-06,-5.856911114567506e-07,0.9030337616515136,0.4295695814317329,begin_weld
590,1731011843.7713072,4600257,1731011843,770234150,,-0.0065757819597326,0.0065773500887827,0.0328630378945449,-7.310442721970563e-06,1.701460361153237e-06,0.903029189640072,0.4295791924682308,begin_weld
800,1731011856.3708005,4600467,1731011856,370233269,,0.032968457219328,-0.047058745626064,0.0328649934190647,9.2407069244534e-06,-1.376754809295564e-05,0.9030332224957524,0.4295707145441845,begin_weld
801,1731011856.4310398,4600468,1731011856,430233157,,0.0327917883896456,-0.0461952844455928,0.0327443161559821,0.0001827958333542,-0.0001298918834591,0.9031017994599914,0.4294264657958421,begin_weld
802,1731011856.491066,4600469,1731011856,490232242,,0.0326889493392644,-0.0458541009092844,0.032796150710866,0.0001128002801022,3.2994579468385783e-06,0.9030766543785638,0.4294793866783719,begin_weld
803,1731011856.5518038,4600470,1731011856,550310830,,0.0325965181755694,-0.0454205980530542,0.0328202765153487,8.671484137855106e-05,3.218248135407845e-05,0.9030693575823184,0.4294947343573407,begin_weld
804,1731011856.6111715,4600471,1731011856,610236426,,0.0325884033552252,-0.0450157577511489,0.032894526706664,-7.561405823707688e-05,-4.683608595351738e-05,0.903000824193244,0.4296388059698717,begin_weld
805,1731011856.671136,4600472,1731011856,669255855,,0.0324522242073114,-0.044509189327022,0.0328498718381082,4.907971753637391e-06,-2.202369458671468e-05,0.9030365298802866,0.4295637614983822,begin_weld
806,1731011856.7311044,4600473,1731011856,730232296,,0.0323048781754021,-0.0440499461108254,0.032841043461111,4.511012061289432e-05,3.539013616253365e-05,0.9030490749282128,0.4295373848501599,begin_weld
807,1731011856.7912538,4600474,1731011856,790234862,,0.0322159352795702,-0.0435672785679991,0.0328471121689278,2.31909059099019e-05,-9.184103340139537e-06,0.9030426746016182,0.429550843586868,begin_weld
808,1731011856.8509648,4600475,1731011856,850235105,,0.032123727730211,-0.0431334062779853,0.0328793458470747,-3.371183602846969e-05,-1.8236224571512112e-05,0.9030226067781352,0.429593028549782,begin_weld
809,1731011856.9107068,4600476,1731011856,910233346,,0.0319618932901025,-0.0426514994688253,0.0328471283761726,2.9322531654445933e-05,1.1136413155933476e-05,0.9030392368599984,0.4295580702390323,begin_weld
810,1731011856.9707985,4600477,1731011856,970232826,,0.0319003180553651,-0.0422312702856254,0.0328937482481057,-7.382214883445394e-05,-2.715326416672456e-05,0.9030007366705106,0.4296389919286956,begin_weld
811,1731011857.03137,4600478,1731011857,30267132,,0.0317309090407282,-0.0417245655524289,0.0328556380827205,1.609121682667044e-05,1.0354450994682923e-05,0.9030427494665216,0.4295506864967198,begin_weld
812,1731011857.091254,4600479,1731011857,90234801,,0.0315969628352392,-0.0412742945658933,0.032860159079656,4.057871663043695e-06,5.450053815160286e-06,0.9030337341383952,0.4295696392459515,begin_weld
813,1731011857.1501288,4600480,1731011857,149269912,,0.031457233556796,-0.0407963432080511,0.0328447501280511,2.718335718034855e-05,-3.71056745902266e-06,0.9030447609120328,0.4295464573671006,begin_weld
814,1731011857.210736,4600481,1731011857,210233014,,0.0313503788642275,-0.0403600726251837,0.0328762325832178,-3.619184242598965e-05,-1.5494058265591866e-05,0.9030236445227277,0.4295908470661067,begin_weld
815,1731011857.2707715,4600482,1731011857,270237267,,0.0311836921860794,-0.0398752777911405,0.0328502922678076,1.446061904638216e-05,-5.325030688316332e-06,0.9030413117506452,0.4295537091379941,begin_weld
816,1731011857.3312123,4600483,1731011857,330232291,,0.0310349473352709,-0.0394420281800668,0.0328612575479743,3.163278409217423e-06,1.2375601053946422e-05,0.9030334337128636,0.4295702706584723,begin_weld
817,1731011857.39089,4600484,1731011857,390234162,,0.0309018539573487,-0.0389813471377318,0.0328662018318688,-1.6230646920534878e-05,-1.6981245635787314e-05,0.9030245806637844,0.4295888804021812,begin_weld
818,1731011857.451291,4600485,1731011857,450234923,,0.0307271799631416,-0.038517645971308,0.0328515824229956,1.2459935224310248e-05,-7.002739538687497e-07,0.9030346824823662,0.4295676455207395,begin_weld
819,1731011857.5113308,4600486,1731011857,510293570,,0.0305694417047972,-0.0381057517762178,0.0328739656881063,-1.9048719226304647e-05,1.852848920679528e-05,0.9030185274358212,0.4296016042817838,begin_weld
820,1731011857.5713356,4600487,1731011857,570236135,,0.0304086835491574,-0.0376132733986925,0.0328565814558008,7.089274384841342e-06,-2.936139709128175e-06,0.9030371037500398,0.4295625556212521,begin_weld
821,1731011857.6302338,4600488,1731011857,629242531,,0.0302251123968188,-0.0371686300359997,0.0328452151113438,3.639731449022179e-05,1.9769252771425237e-05,0.9030450393028434,0.4295458709788028,begin_weld
822,1731011857.6908708,4600489,1731011857,690232117,,0.0300591214435549,-0.0367433240204241,0.032859928339547,2.6307054140098976e-06,2.025732627260448e-05,0.903023428926391,0.4295913015794703,begin_weld
823,1731011857.7503412,4600490,1731011857,749257861,,0.0298859025413338,-0.0362760953550913,0.032849967763962,2.1761418250603385e-05,8.197879041125878e-06,0.9030390896273244,0.4295583802747754,begin_weld
824,1731011857.811165,4600491,1731011857,810231948,,0.0297187732888679,-0.0358256708559376,0.0328605560025448,-1.873505710227711e-06,-1.2308892263741384e-05,0.9030301433559758,0.4295771875175251,begin_weld
825,1731011857.8709822,4600492,1731011857,870233069,,0.029572654906646,-0.0354145182930071,0.0328935063163428,-7.370114026098323e-05,-4.1513704722329e-05,0.903001505441642,0.4296373750209385,begin_weld
826,1731011857.9309103,4600493,1731011857,930234811,,0.0293402613970616,-0.0349263397641872,0.0328494030452631,1.6747197357567474e-05,-1.7469391434554002e-05,0.9030354679430316,0.4295659938254678,begin_weld
827,1731011857.990994,4600494,1731011857,990289051,,0.0291301903040058,-0.034512306079226,0.0328509883207788,2.043175920807897e-05,1.74503754818881e-05,0.903032689873539,0.4295718336876712,begin_weld
828,1731011858.0508273,4600495,1731011858,50236250,,0.0289894820046998,-0.0340755730683194,0.0328804909423606,-5.115927307105788e-05,-4.466400914761344e-05,0.9030088410684072,0.4296219597973867,begin_weld
829,1731011858.110285,4600496,1731011858,109248562,,0.0287507364016511,-0.033637120174949,0.0328544043857137,2.1258142485478296e-05,2.2685182038100397e-05,0.9030421447952968,0.4295519569935448,begin_weld
830,1731011858.1711917,4600497,1731011858,170231761,,0.0285648813182913,-0.0331750806128726,0.032854879210144,6.763073272238738e-06,-1.632152157885321e-05,0.9030387630471712,0.4295590670933435,begin_weld
831,1731011858.231093,4600498,1731011858,230234883,,0.0283521628595687,-0.032783206576361,0.0328659594382004,-1.4216806731789113e-05,1.1751511981250845e-05,0.9030224702200788,0.4295933169142779,begin_weld
832,1731011858.291958,4600499,1731011858,290232928,,0.0281612557505724,-0.0323251791557705,0.0328648593971847,-1.980043853879903e-05,-1.896517353691546e-05,0.9030280446928516,0.4295815984728284,begin_weld
833,1731011858.3507545,4600500,1731011858,350236268,,0.0279270756193308,-0.0318924238618857,0.0328534811467932,1.0216812142114832e-05,-3.211981140579027e-08,0.9030335277740744,0.4295700729933658,begin_weld
834,1731011858.4109795,4600501,1731011858,410232507,,0.0277248792956087,-0.0315133448422882,0.0328832470317597,-3.9080644881545535e-05,1.6494742653873065e-05,0.903010364908196,0.4296187601455431,begin_weld
835,1731011858.4711652,4600502,1731011858,470266742,,0.0274864174507445,-0.0310203945593846,0.0328440889354609,3.1227367210299295e-05,-3.134361359130889e-07,0.9030427053245697,0.4295507785871605,begin_weld
836,1731011858.5309389,4600503,1731011858,530235848,,0.027262504449385,-0.0305879917595916,0.0328397129541507,3.636169111577289e-05,-3.3331724677624173e-07,0.9030512657093824,0.429532781261685,begin_weld
837,1731011858.5902903,4600504,1731011858,589244355,,0.0270425395619177,-0.0302670690297053,0.0328855754900492,-4.4416349363433775e-05,2.409831910446604e-05,0.9030034539304996,0.4296332850653531,begin_weld
838,1731011858.651192,4600505,1731011858,650234367,,0.0267903168503331,-0.0297782566377022,0.0328505306850219,1.8588435261636143e-05,1.584987757938195e-05,0.9030406157579292,0.4295551718869089,begin_weld
839,1731011858.7111604,4600506,1731011858,710234828,,0.0266181180652441,-0.0293562187664219,0.0328848530774955,-5.51654761412431e-05,-5.376320617765545e-05,0.9030180141581562,0.4296026771007694,begin_weld
840,1731011858.7711549,4600507,1731011858,770231726,,0.026320399187756,-0.0289381829524955,0.0328541264530032,2.648555123106102e-05,1.4204034907081167e-05,0.9030395578340856,0.4295573955638289,begin_weld
841,1731011858.830835,4600508,1731011858,830232326,,0.0260859831723489,-0.0285334962393037,0.0328584560734745,6.738666296760344e-06,1.7715687561652956e-05,0.9030366989999872,0.4295634061462307,begin_weld
842,1731011858.8911734,4600509,1731011858,890231834,,0.0258362642929577,-0.0281042651994291,0.0328498983118426,1.3650282019277746e-05,-6.760205292181946e-06,0.9030382898399943,0.4295600619829872,begin_weld
843,1731011858.950745,4600510,1731011858,949280647,,0.0255831302993341,-0.0277105133900684,0.0328528585864963,1.463834547185134e-05,-3.48165063753384e-06,0.9030369361716588,0.4295629077135272,begin_weld
844,1731011859.0110168,4600511,1731011859,10236871,,0.0253362372664474,-0.0273133165239691,0.0328661977309095,-7.97742814765154e-06,3.894932145940118e-07,0.9030283645802178,0.429580926834265,begin_weld
845,1731011859.0701866,4600512,1731011859,69260411,,0.025095225099756,-0.0269118845924369,0.032870698573598,-1.8334775449484855e-05,-1.5225262124135209e-06,0.9030292737869268,0.4295790152525765,begin_weld
846,1731011859.1311305,4600513,1731011859,130231745,,0.0248142486380527,-0.026483467199739,0.0328525958480253,1.6259188051103956e-05,8.374160951504736e-06,0.9030402616859284,0.4295559165460562,begin_weld
847,1731011859.1907656,4600514,1731011859,190234059,,0.0245648614521318,-0.0260891719638778,0.0328619582279067,-2.5903313869015558e-06,-2.500732354517092e-06,0.903032018472922,0.4295732459077924,begin_weld
848,1731011859.2514231,4600515,1731011859,250234949,,0.0243027163940978,-0.0257080444161589,0.0328757795231087,-2.8087288204662843e-05,-9.519504664370316e-06,0.903021531401632,0.4295952897152557,begin_weld
849,1731011859.311178,4600516,1731011859,310232720,,0.023992497103243,-0.025281093543831,0.0328395688811851,4.372551155555239e-05,2.2793132549455844e-05,0.903052124453237,0.4295309745397275,begin_weld
850,1731011859.3710074,4600517,1731011859,370231518,,0.0237591971513959,-0.0249023407923796,0.0328665579161352,-1.479042211104331e-05,-1.128913521470246e-05,0.9030314221523078,0.429574499079472,begin_weld
851,1731011859.4303827,4600518,1731011859,429260765,,0.0234895038037837,-0.0245226869978211,0.0328716458825389,-2.410894703842517e-05,-1.8937666159908345e-05,0.9030228873992404,0.4295924392878237,begin_weld
852,1731011859.4913635,4600519,1731011859,490233891,,0.0231924015919594,-0.0241272064276744,0.0328649377980824,-1.3358346038658382e-05,-6.863768378894183e-06,0.9030264647510892,0.4295849202818844,begin_weld
853,1731011859.550409,4600520,1731011859,549250904,,0.0229135527139587,-0.0237521037654728,0.0328679313305184,-2.1821468275115143e-05,-1.546151504946941e-05,0.903018904983504,0.4296008106686469,begin_weld
854,1731011859.6110637,4600521,1731011859,610232694,,0.0226177255265795,-0.0233551988641204,0.0328617614040567,-7.435184799536823e-06,-8.39398323406311e-06,0.903028300681866,0.4295810610837964,begin_weld
855,1731011859.6709075,4600522,1731011859,670235775,,0.0223091595137021,-0.0229719330286239,0.0328569127582383,1.065231010137166e-05,6.341851225595263e-06,0.9030385938652152,0.4295594229396486,begin_weld
856,1731011859.7312613,4600523,1731011859,730232217,,0.0220043276040681,-0.0225869959202513,0.0328495529095103,2.51166051407634e-05,1.4514435085834387e-05,0.9030457453714474,0.4295443876073976,begin_weld
857,1731011859.7912571,4600524,1731011859,790232660,,0.0217223575362306,-0.0222138999018984,0.0328570500574133,9.763361512997326e-06,6.044815563070017e-06,0.9030400646959232,0.429556330906809,begin_weld
858,1731011859.851191,4600525,1731011859,850234526,,0.0214485299028677,-0.0218410340661052,0.032868853734189,-2.0767268420613403e-05,-1.226932825383635e-05,0.9030288119949113,0.4295799857130725,begin_weld
859,1731011859.9102442,4600526,1731011859,909281395,,0.0211551108028247,-0.021500918350689,0.0328851895183859,-5.498049999973468e-05,-1.978725973339048e-05,0.9030134342958548,0.4296123066985102,begin_weld
860,1731011859.9707472,4600527,1731011859,970237023,,0.0207826803857151,-0.0211125179335248,0.0328487583113685,2.9501542396425324e-05,2.7261895857422725e-05,0.9030391323496166,0.4295582892131168,begin_weld
861,1731011860.0302532,4600528,1731011860,29256191,,0.0204853280469571,-0.0207646836481411,0.0328595874458804,1.19065935624064e-05,2.594764539770109e-05,0.90303318754018,0.4295707873982757,begin_weld
862,1731011860.091092,4600529,1731011860,90232261,,0.0201728148135881,-0.0203967883954985,0.0328614655440501,-2.658147545992016e-06,1.712601470459198e-05,0.9030257238028276,0.4295864777317988,begin_weld
863,1731011860.150824,4600530,1731011860,150240712,,0.0198388317389534,-0.0200297438013576,0.0328473011675743,2.9899041358792824e-05,4.420732266113646e-05,0.9030404173073014,0.4295555864625844,begin_weld
864,1731011860.2112525,4600531,1731011860,210232507,,0.0195380874203342,-0.0196980700800293,0.032870850165255,-1.092224029952579e-05,3.33138076323368e-05,0.9030210418063872,0.4295963184500097,begin_weld
865,1731011860.2708623,4600532,1731011860,270233658,,0.019214153078353,-0.0193546636883291,0.0328775698861187,-2.121803002720203e-05,3.759100189884845e-05,0.9030154332743584,0.4296081067729456,begin_weld
866,1731011860.3312037,4600533,1731011860,330233197,,0.0188673629356847,-0.0189978574098066,0.0328592603642294,8.672025117514686e-06,5.519854806918058e-05,0.9030246413661994,0.4295887498100517,begin_weld
867,1731011860.3906956,4600534,1731011860,389379220,,0.0185548882855217,-0.0186725829793914,0.0328744516435546,-2.4774386073910177e-05,4.5946943755031965e-05,0.9030111687203272,0.4296170695415358,begin_weld
868,1731011860.4501991,4600535,1731011860,449241950,,0.0182439392515609,-0.0182614633255593,0.0328630759378134,-1.2654655591239522e-05,-3.098226782508069e-05,0.9030222931482812,0.4295936882185057,begin_weld
869,1731011860.5099,4600536,1731011860,509256616,,0.0179061632761949,-0.017914786112019,0.0328591892060149,2.7352044307533065e-06,-1.7774888049147845e-05,0.9030299347831916,0.4295776257698213,begin_weld
870,1731011860.571031,4600537,1731011860,570232046,,0.0175328621927373,-0.0175667637428828,0.0328405673212174,4.4349658831829565e-05,2.4219594766066316e-05,0.9030421527427384,0.4295519384385078,begin_weld
871,1731011860.630721,4600538,1731011860,630235769,,0.0172515249626257,-0.0172628251130539,0.0328836130637733,-5.498512022363101e-05,-1.0343980250602509e-05,0.9030058895426948,0.4296281651857161,begin_weld
872,1731011860.6910207,4600539,1731011860,690233262,,0.0168797743285931,-0.0169194546035887,0.0328640309763077,-1.221290201839678e-06,3.906645277497528e-05,0.903026594060341,0.4295846469464439,begin_weld
873,1731011860.7503035,4600540,1731011860,749242421,,0.0165482450446454,-0.0165901965139093,0.032872982049376,-1.3224891745149691e-05,2.742684509990632e-05,0.9030197404511324,0.4295990542685587,begin_weld
874,1731011860.8107443,4600541,1731011860,810231810,,0.0162478807496186,-0.0161772657300817,0.0328659128136333,-2.0890455042302156e-05,-5.434108373802598e-05,0.9030354398938132,0.4295660495272209,begin_weld
875,1731011860.8700738,4600542,1731011860,869266022,,0.0158806733985301,-0.0158547639874953,0.0328508554232053,1.7400116341895525e-05,-9.798474983854332e-06,0.903041597241476,0.4295531087686248,begin_weld
876,1731011860.9308653,4600543,1731011860,930234197,,0.015511166529722,-0.0155399759867174,0.0328558786189295,2.0176025916228657e-05,2.3531437360763175e-05,0.9030331950936888,0.4295707713498244,begin_weld
877,1731011860.9900098,4600544,1731011860,989248572,,0.0151554667935737,-0.0152048964713161,0.0328403888008641,5.620488407228899e-05,5.997828848386543e-05,0.9030486110454936,0.4295383560666272,begin_weld
878,1731011861.0517802,4600545,1731011861,50233980,,0.014889992322208,-0.0149151338715455,0.0329071409144882,-8.999802354950913e-05,-9.719847490748143e-06,0.9029916796537092,0.4296580248081646,begin_weld
879,1731011861.1103072,4600546,1731011861,109243681,,0.0145476508466584,-0.0145008469980902,0.0328653363637038,-2.8283952851407084e-05,-4.6188315978351874e-05,0.903026308279549,0.4295852460474715,begin_weld
880,1731011861.1711533,4600547,1731011861,170232425,,0.0142032744939896,-0.0141742127925205,0.0328740361274154,-4.1584545471258704e-05,-4.8574833205373246e-05,0.90301074875825,0.4296179506704487,begin_weld
881,1731011861.2307827,4600548,1731011861,230232232,,0.0138300707444415,-0.0138487160683425,0.0328639842494958,-5.562450032722028e-06,3.688635105858471e-06,0.9030224268346148,0.4295934084563863,begin_weld
882,1731011861.2909591,4600549,1731011861,290231412,,0.0134630121706925,-0.013515927430469,0.0328525610693445,2.46813524502851e-05,3.872338930512427e-05,0.903030793409784,0.4295758187387014,begin_weld
883,1731011861.350109,4600550,1731011861,349278156,,0.0131431904243137,-0.0131803858129647,0.0328588674243927,1.1773658982569044e-05,3.0663227866803e-05,0.9030305168955384,0.4295764012099876,begin_weld
884,1731011861.410993,4600551,1731011861,410235697,,0.0128089791159083,-0.0127699654374987,0.0328358740530639,4.191769354526386e-05,-1.2723449626745658e-05,0.9030560288905718,0.4295227662946536,begin_weld
885,1731011861.470972,4600552,1731011861,470249820,,0.0124689928850323,-0.0124607744279256,0.0328463398523012,2.8464666609446137e-05,1.826012577374027e-05,0.9030511194647344,0.4295330889347413,begin_weld
886,1731011861.5311704,4600553,1731011861,530231767,,0.0121708049712403,-0.0121798538650838,0.0328963784667331,-6.837111599868046e-05,-5.672459574415846e-06,0.9030068700408708,0.4296261025033325,begin_weld
887,1731011861.5908082,4600554,1731011861,590235913,,0.0117875185043085,-0.0118300248534195,0.0328677268658178,-1.1494411392603454e-05,2.475343311879083e-05,0.9030204542465334,0.4295975540753585,begin_weld
888,1731011861.6507792,4600555,1731011861,650235036,,0.0114729943426402,-0.011395031883799,0.0328367404580179,3.785486039675667e-05,-2.0777279247618855e-05,0.9030701449994492,0.4294930864938199,begin_weld
889,1731011861.711069,4600556,1731011861,710232881,,0.0111230786237855,-0.0111078716989966,0.0328586480686566,3.896901045078303e-06,-9.04147557590812e-06,0.9030381528822738,0.4295603500580994,begin_weld
890,1731011861.7708092,4600557,1731011861,770232730,,0.0107843299563427,-0.0108038673533175,0.0328735937300155,-2.0615374318191608e-05,9.080448325975226e-06,0.9030234120015,0.4295913370515297,begin_weld
891,1731011861.8301134,4600558,1731011861,829243345,,0.0104326975826175,-0.0104623638745929,0.0328584535399038,1.2931342648199031e-05,3.494245578204343e-05,0.9030371411574228,0.4295624754352198,begin_weld
892,1731011861.8913915,4600559,1731011861,890237871,,0.0100918211047841,-0.0100932857181379,0.0328532709513935,1.3587718239844748e-05,-4.088519581244683e-06,0.9030334223554348,0.4295702944893756,begin_weld
893,1731011861.9505565,4600560,1731011861,949248401,,0.0097793736599843,-0.0097283734328554,0.0328489217945811,1.2646566411888426e-05,-3.48233504181629e-05,0.903043028884362,0.4295500979056528,begin_weld
894,1731011862.0113006,4600561,1731011862,10232337,,0.0094620918481456,-0.0094488600923672,0.0328938065826641,-7.164509259159832e-05,-3.355051131681548e-05,0.9030044935060586,0.4296310957661358,begin_weld
895,1731011862.0713022,4600562,1731011862,70234895,,0.0090554221597118,-0.0091085849916505,0.0328593164034857,1.3221259199465149e-05,3.346886733696722e-05,0.9030268771781544,0.4295840520770105,begin_weld
896,1731011862.130819,4600563,1731011862,130232539,,0.0087165417611232,-0.0087714075077013,0.0328548666443631,1.7046140773564683e-05,4.042301779703197e-05,0.9030271996551454,0.4295833734659606,begin_weld
897,1731011862.191239,4600564,1731011862,190232246,,0.0084184118575776,-0.0083553536418523,0.0328445313099106,1.275851650708056e-05,-4.784828228906053e-05,0.903044124151916,0.4295477940607554,begin_weld
898,1731011862.2510562,4600565,1731011862,250247972,,0.0080714705343293,-0.0080527496900838,0.0328598987989117,1.08209426652517e-06,-2.23753017009072e-05,0.903031079351323,0.4295752195177925,begin_weld
899,1731011862.310779,4600566,1731011862,310238314,,0.0076942617802892,-0.007731263325662,0.0328485118012623,3.507022513180357e-05,2.7600613969025624e-05,0.903035964516166,0.4295649482891305,begin_weld
900,1731011862.3713305,4600567,1731011862,370236582,,0.0073608137644419,-0.0074186567172753,0.0328626882304037,6.448756802409833e-06,3.622958951121443e-05,0.903024020189334,0.4295900576211279,begin_weld
901,1731011862.430176,4600568,1731011862,429256379,,0.0070549811679756,-0.0070524214660432,0.0328612790123771,-4.767919654983602e-06,-7.228845075681814e-06,0.9030288108965276,0.4295799886119165,begin_weld
902,1731011862.4909894,4600569,1731011862,490232168,,0.0067478535313073,-0.0066921432323402,0.0328784022228585,-4.38926315770858e-05,-5.4533202064532805e-05,0.9030258640454776,0.429586177576148,begin_weld
903,1731011862.5507748,4600570,1731011862,550239870,,0.006352589519973,-0.0063604631926904,0.0328481166440243,2.8248253854203532e-05,2.23594452699829e-05,0.9030494002490306,0.429536703218663,begin_weld
904,1731011862.6111336,4600571,1731011862,610231829,,0.0060034389488786,-0.0060451840717136,0.0328526444921189,2.6603243836364832e-05,5.216358516527827e-05,0.9030461042313304,0.4295436301516357,begin_weld
905,1731011862.67091,4600572,1731011862,670239491,,0.0056606544705182,-0.0057243278176631,0.0328603812455773,6.9451454759779306e-06,5.335791451522644e-05,0.9030337034992316,0.4295697003387925,begin_weld
906,1731011862.730721,4600573,1731011862,730232278,,0.0053665526946062,-0.0053011839339073,0.0328484734818215,1.5407282727835487e-05,-3.8841643737664414e-05,0.9030528554839464,0.4295294384046724,begin_weld
907,1731011862.7915218,4600574,1731011862,790238597,,0.0050176698535678,-0.0050008185778414,0.0328611293373717,-2.2316470588141395e-06,-1.5733858514718646e-05,0.9030346442664212,0.4295677257454098,begin_weld
908,1731011862.8501337,4600575,1731011862,849243282,,0.0046585708200632,-0.0046912763443653,0.0328573496213447,7.894744191967462e-06,1.9447347276286255e-05,0.9030302296536504,0.4295770057756225,begin_weld
909,1731011862.909896,4600576,1731011862,909261001,,0.0043154168893822,-0.0043619704078781,0.0328564943604122,1.2759696092034715e-05,3.230146024991052e-05,0.903026341328161,0.4295851785866006,begin_weld
910,1731011862.9711514,4600577,1731011862,970232467,,0.0040016793295549,-0.0039672124334489,0.0328536231938926,4.682441091796343e-07,-3.354787480132126e-05,0.9030339083829548,0.4295692716954108,begin_weld
911,1731011863.031003,4600578,1731011863,30234893,,0.0036674340558404,-0.0036602587397848,0.0328713689457461,-2.7856697434059444e-05,-2.070862304141006e-05,0.903020594613406,0.4295972584866066,begin_weld
912,1731011863.0907626,4600579,1731011863,90232831,,0.0032936364200516,-0.0033276094158108,0.0328557632846326,1.6285379619317332e-05,3.004636659095616e-05,0.903035248546164,0.4295664543643629,begin_weld
913,1731011863.150878,4600580,1731011863,150237049,,0.002963225997736,-0.0029763513058829,0.0328566537459403,5.555012515523505e-06,-7.933474849660696e-06,0.9030247504468168,0.4295885240397679,begin_weld
914,1731011863.2111418,4600581,1731011863,210232403,,0.002644227337687,-0.0025835192323355,0.0328410476429315,2.529639416848942e-05,-4.3648874131698746e-05,0.903046194282436,0.4295434418622607,begin_weld
915,1731011863.2702024,4600582,1731011863,269247287,,0.0023023688091839,-0.0022986738046339,0.0328605368749623,-1.1247472772448718e-06,-2.6782671915321124e-06,0.9030330081508166,0.4295711654448529,begin_weld
916,1731011863.3302517,4600583,1731011863,329248896,,0.0019659093854861,-0.0020006284656098,0.0328793342739957,-3.2877070224898376e-05,2.3689474320437453e-05,0.9030196807166662,0.4295991789986073,begin_weld
917,1731011863.3915625,4600584,1731011863,390259575,,0.0015927059382333,-0.0016376134581607,0.0328563584469579,2.28203475438898e-05,5.250856012369159e-05,0.9030405632132524,0.4295552792290823,begin_weld
918,1731011863.4509442,4600585,1731011863,450235112,,0.001295822006848,-0.0012372923492896,0.0328520105149753,3.808541277930413e-06,-3.162810107943107e-05,0.9030497421549534,0.4295359847312335,begin_weld
919,1731011863.5102184,4600586,1731011863,509242061,,0.000950056253321,-0.0009374685427427,0.0328582821699984,7.621060369097789e-07,9.004745981953192e-06,0.9030450337364048,0.4295458845831834,begin_weld
920,1731011863.570833,4600587,1731011863,570231977,,0.0005956429780426,-0.0006242053579028,0.0328710507838982,-1.5962969924038347e-05,1.743484134129188e-05,0.903024610900588,0.4295888168342509,begin_weld
921,1731011863.6310334,4600588,1731011863,630234289,,0.0002585728700436,-0.0002584242658868,0.0328610312752407,-8.96182036971229e-07,-7.289463673053311e-06,0.903029765060926,0.4295779828623312,begin_weld
922,1731011863.6910734,4600589,1731011863,690232674,,-7.466988483734172e-05,8.974645007170379e-05,0.0328583382101691,-5.3304347796300776e-08,-1.7396755062886175e-05,0.9030303467290408,0.4295767598273657,begin_weld
923,1731011863.750269,4600590,1731011863,749242015,,-0.0004252463641531,0.0003985771121558,0.0328607529430549,-2.548396634880712e-06,3.1599336737091462e-06,0.9030192928191222,0.4295999962522964,begin_weld
924,1731011863.8102975,4600591,1731011863,809242961,,-0.0007745617952596,0.000751512597414,0.0328500192174359,2.588771612013652e-05,1.8290025103827463e-05,0.9030339490576956,0.4295691863304026,begin_weld
925,1731011863.8702664,4600592,1731011863,869255502,,-0.0010679874513248,0.0010878055926013,0.0328775014372577,-3.837439147813005e-05,-3.278029385778088e-05,0.9030140937413694,0.4296109215991973,begin_weld
926,1731011863.930711,4600593,1731011863,930231992,,-0.0014554977888802,0.0014367191666235,0.0328520356688483,1.9201155012949957e-05,1.542581837168271e-05,0.90303469537318,0.4295676178969123,begin_weld
927,1731011863.9913683,4600594,1731011863,990234294,,-0.0017781517145989,0.0017759518881422,0.0328601892792887,8.138512748177536e-07,-5.638446646097497e-07,0.9030296817840556,0.4295781579829298,begin_weld
928,1731011864.051083,4600595,1731011864,50234051,,-0.0021154254380385,0.0021257200685334,0.0328567291907081,1.078872261034957e-06,-1.612182828641235e-05,0.903028945930026,0.4295797045385508,begin_weld
929,1731011864.1108017,4600596,1731011864,110232846,,-0.0024560514280678,0.0024409452302154,0.0328655148273999,-1.0495754136427776e-05,3.971212980560445e-06,0.9030220363909044,0.4295942290889072,begin_weld
930,1731011864.1709783,4600597,1731011864,170231860,,-0.002812915369903,0.0027974681950955,0.0328501779751879,2.351783581420436e-05,2.346753776565317e-05,0.9030412424534142,0.4295538538115799,begin_weld
931,1731011864.2308872,4600598,1731011864,230235289,,-0.0030865306963488,0.0031186996210578,0.0328934637304216,-7.516135885755817e-05,-4.219243041319148e-05,0.903009416745776,0.4296207465183945,begin_weld
932,1731011864.2910464,4600599,1731011864,290235657,,-0.0034793021401154,0.0034617422382126,0.0328620573519522,5.6816068969928e-08,1.9201376790409127e-05,0.9030305674179404,0.4295762958312955,begin_weld
933,1731011864.3503194,4600600,1731011864,349255423,,-0.0038327742160438,0.0038272011140607,0.0328387661578291,4.348415701137375e-05,1.6616036572017182e-05,0.9030473930109152,0.4295409221590243,begin_weld
934,1731011864.411249,4600601,1731011864,410232302,,-0.0041519190853918,0.0041649177565624,0.0328552930367517,8.723337173387376e-06,-1.13020915753461e-06,0.903038459365848,0.4295597057788147,begin_weld
935,1731011864.471166,4600602,1731011864,470237943,,-0.0045074434709139,0.0044866067312722,0.0328560153421832,1.7660401885797716e-05,3.09551987661928e-05,0.9030404525353976,0.429555514240651,begin_weld
936,1731011864.5309317,4600603,1731011864,530232033,,-0.0048306190096766,0.004836396904671,0.0328598702183487,-2.4474699346595505e-06,-9.60427085038284e-06,0.903028885350044,0.4295798320745808,begin_weld
937,1731011864.5913188,4600604,1731011864,590236502,,-0.0051729933908453,0.0051740402640968,0.0328573133762877,4.172634060180518e-06,-5.149001802256411e-06,0.9030269181815844,0.429583967339968,begin_weld
938,1731011864.651034,4600605,1731011864,650234045,,-0.0055152661584094,0.0055067790904044,0.0328599112278774,3.5010388041789253e-07,3.973277748182816e-06,0.9030287580374754,0.4295800997967496,begin_weld
939,1731011864.710989,4600606,1731011864,710236135,,-0.0058514714202672,0.0058735566709502,0.0328475361950933,2.0543163673867797e-05,-5.976307129405302e-06,0.9030423577774548,0.4295515098355468,begin_weld
940,1731011864.7702062,4600607,1731011864,769257934,,-0.0061486258954087,0.0061698076063195,0.0328876345039256,-5.878283209484761e-05,-2.464032298941216e-05,0.9030109122222336,0.4296176071170766,begin_weld
1672,1731011908.691061,4601339,1731011908,690232181,,-0.0063653251514387,0.0063733404459188,0.0343491890404695,1.998719121925275e-06,-2.83306282102221e-06,0.9030337265800674,0.4295696551746816,begin_weld
1673,1731011908.7508056,4601340,1731011908,750236185,,-0.0060498910565292,0.0061264091628769,0.0343582698771766,-5.66325459383669e-05,-3.85397040238662e-05,0.9030368135718604,0.4295631602470431,begin_weld
1674,1731011908.810443,4601341,1731011908,809246484,,-0.0055889502916783,0.0056192130561674,0.0344333487591203,-0.0001856130331067,-0.0001054554110559,0.9029519929907992,0.4297413789489002,begin_weld
1675,1731011908.8707366,4601342,1731011908,870233298,,-0.0051671231704896,0.0052740366373969,0.0344668079286395,-0.0002737018446604,-0.0001757229002977,0.9029305735033796,0.42978631160336,begin_weld
1676,1731011908.930844,4601343,1731011908,929290674,,-0.0047880188670855,0.0049120905077856,0.0345035128985972,-0.0003515841177848,-0.0001971555993686,0.9029119741268096,0.4298253185850101,begin_weld
1677,1731011908.9902196,4601344,1731011908,989269183,,-0.0046415609507881,0.0046448898066559,0.0343702968432225,-4.339669180031121e-05,-1.3848466764428415e-05,0.9030147524169584,0.4296095376528396,begin_weld
1678,1731011909.0507889,4601345,1731011909,50233746,,-0.0043036702369916,0.0043031419870878,0.0343696992956377,-2.8788839965935026e-05,-2.9498621938187635e-06,0.9030230234113809,0.429592153503145,begin_weld
1679,1731011909.1109047,4601346,1731011909,110235442,,-0.0039613147298001,0.0039698019443549,0.0343697344476082,-3.170638670583351e-05,-1.269212632785402e-05,0.9030229501308746,0.4295923071594123,begin_weld
1680,1731011909.1712272,4601347,1731011909,170232027,,-0.0036265558642793,0.0036529030618924,0.0343489349427645,-3.69108961189463e-06,-6.467167629797895e-07,0.9030430342428938,0.4295500882217875,begin_weld
1681,1731011909.2311318,4601348,1731011909,230232716,,-0.0032804809407562,0.0033016432097746,0.0343570695099529,-2.018959709524248e-05,-6.466282119901519e-07,0.9030376619489128,0.4295613817532988,begin_weld
1682,1731011909.290299,4601349,1731011909,289277472,,-0.0029857869187532,0.0029778911413309,0.0343350701608983,3.468143303336743e-05,2.232816996938261e-05,0.9030477408789724,0.4295401913581957,begin_weld
1683,1731011909.350942,4601350,1731011909,350237111,,-0.0026070357487447,0.0026089095044996,0.0343635476459227,-2.375009628460236e-05,3.9392399716465205e-06,0.9030293772836742,0.4295787974086651,begin_weld
1684,1731011909.4109626,4601351,1731011909,409323441,,-0.002277652893206,0.0022917439053058,0.0343552950901953,-1.1124916700335997e-05,-6.08150973873127e-06,0.9030344947609008,0.4295680401416944,begin_weld
1685,1731011909.4712875,4601352,1731011909,470256975,,-0.0019283322166157,0.0019584754751781,0.0343498080559958,-5.644554925918974e-06,-1.435753070225926e-05,0.9030383347848924,0.42955996749107,begin_weld
1686,1731011909.531207,4601353,1731011909,530233506,,-0.001618243825731,0.0015939140702848,0.0343466711254762,9.27944004594328e-06,2.6301813410879266e-05,0.9030362623306504,0.4295643236326724,begin_weld
1687,1731011909.591201,4601354,1731011909,590235242,,-0.0012504797190494,0.001260895934496,0.0343579411182905,-1.6324563892166784e-05,-1.3859237094528385e-06,0.9030320922580306,0.42957309050227,begin_weld
1688,1731011909.6510625,4601355,1731011909,650234744,,-0.0009054156270177,0.0009416283914382,0.0343539058784942,-1.0677025834064154e-05,-2.42285435975008e-05,0.9030360064990072,0.4295648615346746,begin_weld
1689,1731011909.7108305,4601356,1731011909,710233888,,-0.0005825758123259,0.0005822193292833,0.0343542171558079,-7.148099387253637e-06,4.771639957048966e-07,0.903032104227755,0.4295730655926532,begin_weld
1690,1731011909.7701054,4601357,1731011909,769258129,,-0.0002655711667736,0.0002441546423637,0.0343433974717694,1.4979471019614144e-05,2.405851518538182e-05,0.9030363369050736,0.4295641668317664,begin_weld
1691,1731011909.8312185,4601358,1731011909,830234259,,0.0001112764566814,-9.022101960240449e-05,0.0343589659928803,-2.8501262395067555e-05,-3.577299228671396e-05,0.9030193420624713,0.4295998903270724,begin_weld
1692,1731011909.8903046,4601359,1731011909,889270135,,0.0004237461715609,-0.0004050123205168,0.0343378745464382,1.7710616850186383e-05,-1.136091437144702e-05,0.903040430412052,0.4295555617128936,begin_weld
1693,1731011909.9503522,4601360,1731011909,949288914,,0.0007589522830138,-0.0007608702203406,0.0343408771204927,1.801167753020072e-05,1.5455107617852513e-05,0.9030425558700756,0.4295510932640732,begin_weld
1694,1731011910.0110435,4601361,1731011910,10233358,,0.0011092948100055,-0.0011217609269335,0.0343535813845944,-6.999007646371925e-06,5.971129693045762e-06,0.903027732246118,0.4295822560462585,begin_weld
1695,1731011910.070896,4601362,1731011910,70235930,,0.0014681883995641,-0.0014396855713124,0.0343547396160318,-1.2879912939462244e-05,-3.096503872436472e-05,0.9030274314673354,0.4295828871042016,begin_weld
1696,1731011910.130838,4601363,1731011910,130232709,,0.0017952262435239,-0.0017926247905095,0.0343565183303368,-1.1090656144604316e-05,-5.433114097665068e-06,0.9030321985931352,0.429572867103507,begin_weld
1697,1731011910.1907609,4601364,1731011910,190233267,,0.0021218694994827,-0.0021547211126341,0.034358276254448,-4.533602590665835e-06,2.9165571868229057e-05,0.903031889005892,0.4295735170692746,begin_weld
1698,1731011910.2503717,4601365,1731011910,249335840,,0.0024740406688489,-0.002457312381309,0.0343533342282729,-2.294941593963743e-06,5.752197597264635e-06,0.9030463709938636,0.429543073272587,begin_weld
1699,1731011910.3111873,4601366,1731011910,310233394,,0.0028107837003294,-0.0027953118128195,0.0343456702559271,4.204179655382905e-06,-9.394072346626804e-06,0.9030384992971412,0.4295596218003311,begin_weld
1700,1731011910.370075,4601367,1731011910,369276614,,0.0031456964072609,-0.0031603678010493,0.0343568035602628,-1.3436642896191552e-05,1.6354820840878615e-05,0.9030300183744316,0.4295774499047292,begin_weld
1701,1731011910.4302526,4601368,1731011910,429264690,,0.0034590441492942,-0.0034730737893427,0.0343328671896909,3.384547334815704e-05,2.5910352826914543e-05,0.9030495116812168,0.4295364683416923,begin_weld
1702,1731011910.4909918,4601369,1731011910,490232264,,0.0038366785969891,-0.0038261295366338,0.0343561075073486,-9.340591422212946e-06,-1.9955883167034752e-06,0.90303747149271,0.4295617825049432,begin_weld
1703,1731011910.551061,4601370,1731011910,550240527,,0.004158110882507,-0.004168612797179,0.034346763579413,1.4544762565030764e-05,2.2253385146834125e-05,0.9030434492587164,0.4295492149267148,begin_weld
1704,1731011910.6111984,4601371,1731011910,610232752,,0.0045081164573943,-0.0045179543002169,0.0343598789471199,-1.896504393085948e-05,-6.981744576210783e-06,0.9030235848036544,0.4295909739274552,begin_weld
1705,1731011910.670782,4601372,1731011910,670233365,,0.0048562090808995,-0.0048351445116547,0.0343487308075273,-6.919152304583105e-06,-1.5462330375515196e-05,0.9030346206283753,0.4295677753970939,begin_weld
1706,1731011910.73026,4601373,1731011910,729262832,,0.0051868430390707,-0.0051876571041006,0.034357304751487,-2.2678244061544292e-05,-1.7871482488414224e-05,0.9030207517061412,0.4295969287068789,begin_weld
1707,1731011910.7907898,4601374,1731011910,790233350,,0.0055374900054453,-0.0055372450035611,0.0343628517871303,-3.2199486164841174e-05,-1.9963007255059216e-05,0.903017240302114,0.4296043089656172,begin_weld
1708,1731011910.8502712,4601375,1731011910,849354480,,0.005830507862313,-0.0058313177363259,0.0343221576922825,5.68129873033263e-05,1.1854367627123247e-05,0.9030515739537484,0.4295321308254087,begin_weld
1709,1731011910.9099958,4601376,1731011910,909246762,,0.0061951785024509,-0.006193683711162,0.0343485667591902,-1.5968414633901388e-06,-1.0456845444171708e-05,0.9030306705187364,0.4295760793975679,begin_weld
1710,1731011910.9709644,4601377,1731011910,970232788,,0.0065431042742367,-0.0065503780606994,0.0343564165209318,-1.056641652010694e-05,-9.001390024373609e-07,0.9030286637750468,0.4295802978352175,begin_weld
1711,1731011911.0307767,4601378,1731011911,30235221,,0.0069051942779328,-0.0068772132241023,0.0343607599152484,-2.7367483569689192e-05,-2.6985674402072456e-05,0.9030286608573346,0.4295803023801293,begin_weld
1712,1731011911.0912998,4601379,1731011911,90231378,,0.0072213633351927,-0.0072226588122924,0.0343509211149867,-3.450433744731772e-06,2.440061542796651e-06,0.9030348565986396,0.4295672796547881,begin_weld
1713,1731011911.1508584,4601380,1731011911,150236202,,0.0075615297592953,-0.0075556024981745,0.0343475858608183,5.942616229400767e-06,3.7562301224608257e-06,0.9030390796779528,0.4295584017627543,begin_weld
1714,1731011911.2100158,4601381,1731011911,209343830,,0.0078983950115242,-0.0079012875302845,0.0343564848998235,-1.4590503749042594e-05,-1.6706582104993945e-06,0.9030295570233812,0.4295784199962585,begin_weld
1715,1731011911.2709432,4601382,1731011911,270232851,,0.0082366806461062,-0.0082429911363031,0.0343501137782136,9.97626815692483e-07,1.5998535443846503e-05,0.903040219419918,0.429556005490644,begin_weld
1716,1731011911.3301256,4601383,1731011911,329249493,,0.0085886276776095,-0.0085652168189176,0.0343522710207522,-1.2128911875583375e-05,-7.187052923398471e-06,0.9030394313820768,0.4295576622182074,begin_weld
1717,1731011911.3900018,4601384,1731011911,389250098,,0.0089040049599514,-0.0089057745240817,0.0343426497852394,1.0234505276646052e-05,8.994765931246028e-06,0.90304177988893,0.4295527250401076,begin_weld
1718,1731011911.451079,4601385,1731011911,450234824,,0.0092575513293611,-0.0092554819950536,0.034348653415543,6.580058363817928e-06,1.4251431665079693e-05,0.903042709238139,0.4295507712080629,begin_weld
1719,1731011911.5107589,4601386,1731011911,510234837,,0.0095909455162852,-0.0096021585549131,0.0343507467112546,2.6964532158209733e-06,1.0592614958058917e-05,0.9030339990464894,0.4295690822750521,begin_weld
