,Time,header.seq,header.stamp.secs,header.stamp.nsecs,header.frame_id,pose.position.x,pose.position.y,pose.position.z,pose.orientation.x,pose.orientation.y,pose.orientation.z,pose.orientation.w,data
439,1731012324.7909863,4608274,1731012324,790237069,,-0.0469707802110277,0.0331801632555944,0.0120156111146858,1.6859970741635163e-05,2.2864319171333145e-05,0.9030651221529578,0.4295036488131712,begin_weld
440,1731012324.850978,4608275,1731012324,850236341,,-0.0463136245940217,0.0332869004184494,0.0119308758484572,2.8375773571443944e-05,-9.61625987390707e-05,0.9030684424472002,0.4294966568013748,begin_weld
441,1731012324.910976,4608276,1731012324,910234061,,-0.0459298484480692,0.0324139933110085,0.012036819793688,-0.0001118564339477,-5.160524311247489e-05,0.9029971942478108,0.4296464267343775,begin_weld
442,1731012324.9712465,4608277,1731012324,970232363,,-0.0454077680342464,0.0322179046200996,0.0121191058792725,-0.0001808010657853,-6.744274602980245e-05,0.9030023046540836,0.4296356602423316,begin_weld
443,1731012325.0313234,4608278,1731012325,30257624,,-0.0448278613655549,0.0328346672391556,0.0120383828216059,-8.125471082294665e-05,-8.464426335134869e-05,0.9030422404620336,0.4295517409746252,begin_weld
444,1731012325.090139,4608279,1731012325,89245810,,-0.0443737001562245,0.0328751148491421,0.0119859370059899,-5.543631119017525e-05,-9.02841004016264e-05,0.903014430197316,0.4296102042910679,begin_weld
445,1731012325.150649,4608280,1731012325,149288387,,-0.0440472682147203,0.0319412531792131,0.0120975847853391,-0.0001830654568145,2.67694386151619e-05,0.9029315768192824,0.4297842870011421,begin_weld
446,1731012325.2111008,4608281,1731012325,210231867,,-0.0435122167864631,0.0316675972930438,0.0121545172317417,-0.0002678447053181,-7.448532751408005e-05,0.9029423608112328,0.4297615801392527,begin_weld
447,1731012325.271222,4608282,1731012325,270237772,,-0.0429798193866649,0.0324236685451585,0.0119741112212024,4.075137610829456e-05,-6.965626913273678e-05,0.9031100722677552,0.4294091182728416,begin_weld
448,1731012325.3312917,4608283,1731012325,330232566,,-0.0425241979491066,0.0324876472964737,0.0119317895500005,8.200283435226095e-05,-1.1393204905789418e-05,0.9030723028325502,0.4294885435054636,begin_weld
449,1731012325.3911526,4608284,1731012325,390234187,,-0.0422195534409413,0.0315674204617967,0.0120440454481451,-5.287354807637151e-05,6.362139654683303e-05,0.9029581693856024,0.4297284462268088,begin_weld
450,1731012325.4510086,4608285,1731012325,450234324,,-0.0417863049162788,0.0311681247332029,0.0120565335817853,-9.48766110640762e-05,-2.982753791956268e-05,0.9029431842151368,0.4297599285510181,begin_weld
451,1731012325.5113642,4608286,1731012325,510268306,,-0.0411050553815109,0.0318346364275778,0.0119725278866389,1.977415338127521e-05,-7.028903969534455e-05,0.903093916392109,0.4294430961652499,begin_weld
452,1731012325.5707877,4608287,1731012325,570234383,,-0.0406410325414339,0.0319426362288975,0.0119471743637245,6.79064836688978e-05,2.695902959845309e-05,0.9030568888344722,0.4295209543090113,begin_weld
453,1731012325.6304524,4608288,1731012325,629281253,,-0.0403093899112274,0.0310948320961174,0.0120454744349382,-7.67426909947764e-05,1.312186197556225e-05,0.9029638614232344,0.4297164866537219,begin_weld
454,1731012325.6912055,4608289,1731012325,690232662,,-0.0399781196868855,0.0306901884466388,0.0119927189070501,2.0828450416705565e-05,-1.2955917350063608e-05,0.9030104463687012,0.4296185903185741,begin_weld
455,1731012325.750842,4608290,1731012325,750246523,,-0.0392858645114258,0.0312392021572302,0.0119516897380744,8.254367537726969e-05,-3.699111900987232e-05,0.903117399188079,0.4293937064070208,begin_weld
456,1731012325.81137,4608291,1731012325,810232674,,-0.0387753531651547,0.031414804466715,0.0119310561395569,0.0001282430578597,5.085543749790456e-05,0.9031003552425996,0.4294295394219325,begin_weld
457,1731012325.8711662,4608292,1731012325,870233894,,-0.0384724916676726,0.030569077524877,0.0120169026251746,-1.5203041825384124e-05,3.4501686519567134e-05,0.9029977318349168,0.4296453128797017,begin_weld
458,1731012325.9310544,4608293,1731012325,930232611,,-0.0381034765500764,0.0299452086837569,0.0120696016568283,-0.0001272096037282,5.79972031556616e-06,0.9029709978833927,0.4297014786634434,begin_weld
459,1731012325.9915435,4608294,1731012325,990304216,,-0.0373710092003788,0.0304651488284847,0.0120329347364648,-8.942028172029951e-05,-0.0001089791244826,0.9030592074415924,0.4295160625430982,begin_weld
460,1731012326.0513406,4608295,1731012326,50236226,,-0.0368756496990906,0.0306198087859213,0.012016457953915,-1.945481093750162e-05,5.002163464398176e-05,0.903027466859219,0.4295828106630531,begin_weld
461,1731012326.110585,4608296,1731012326,109246927,,-0.0366582298055457,0.0299290809944401,0.012008187598968,8.958703937149828e-07,4.958148548060998e-05,0.9029934054668052,0.4296544044046748,begin_weld
462,1731012326.1708758,4608297,1731012326,170232262,,-0.0363694697575924,0.0293224516555898,0.0119970145212945,1.5614144572465277e-05,7.730911501675647e-05,0.9030293964211168,0.4295787506136825,begin_weld
463,1731012326.2310662,4608298,1731012326,230235659,,-0.0355725298848867,0.0298704747546838,0.0119671162150898,4.832226188980997e-05,-0.0001358610922969,0.9031457058403124,0.4293341510163463,begin_weld
464,1731012326.2913065,4608299,1731012326,290231063,,-0.0350906797968966,0.0299734050452607,0.0119551210700474,0.0001115445831578,6.321710857632698e-05,0.903084554783866,0.4294627695996824,begin_weld
465,1731012326.3510113,4608300,1731012326,350238084,,-0.0347993817714044,0.0292337575874861,0.0120124772981987,-1.2873466798859254e-05,4.033670277958157e-05,0.9030116214157085,0.4296161191056471,begin_weld
466,1731012326.410738,4608301,1731012326,410232971,,-0.0345017776516188,0.0284817932607708,0.012068621002828,-0.0001319918209194,4.118688292417939e-05,0.9029711718427136,0.4297011097295384,begin_weld
467,1731012326.471036,4608302,1731012326,470271983,,-0.0337749140724731,0.0289764831706123,0.0120172565178216,-4.463277261672861e-05,-0.0001257020420879,0.9030906946357592,0.4294498567577058,begin_weld
468,1731012326.53082,4608303,1731012326,530234118,,-0.0332905550166429,0.0290785467755786,0.0120003575666155,3.4704126393353335e-05,8.30366728874783e-05,0.9030222470052968,0.4295937770895187,begin_weld
469,1731012326.590496,4608304,1731012326,589244942,,-0.0330064742910888,0.028436378799964,0.0120267897861285,-5.823591867017005e-05,4.510376276467821e-05,0.9029805098864558,0.4296815022076522,begin_weld
470,1731012326.6509583,4608305,1731012326,650234305,,-0.0328897776075154,0.0277592590880835,0.0119614358368776,8.728355652139395e-05,0.0001338830487998,0.9030394619536452,0.4295575684484923,begin_weld
471,1731012326.7112164,4608306,1731012326,710236085,,-0.032082106243393,0.0281317331057357,0.0119807726056124,4.7023470162328775e-05,-0.0001052432941187,0.903123969696168,0.4293798808431492,begin_weld
472,1731012326.7711802,4608307,1731012326,770231596,,-0.0315613681628838,0.0282560675819939,0.0119572682024342,0.0001125685995187,8.558009138049841e-05,0.9030502530182254,0.4295348886040312,begin_weld
473,1731012326.8311374,4608308,1731012326,830232510,,-0.0312490345250697,0.0276633987642518,0.0119897215669874,1.027369015872674e-05,6.118433184756462e-05,0.903021656039639,0.4295950242662927,begin_weld
474,1731012326.8908772,4608309,1731012326,890232447,,-0.0310540671493007,0.0267817824660878,0.0120727108249258,-0.0001255529785704,0.0001101800266074,0.9029676363743764,0.4297085288393555,begin_weld
475,1731012326.9507616,4608310,1731012326,949257842,,-0.0303285285586288,0.0270763165705018,0.0120608167187709,-8.89152780286337e-05,-8.119393699444768e-05,0.9030780198170736,0.4294765134729622,begin_weld
476,1731012327.0108666,4608311,1731012327,10234923,,-0.0297657474526198,0.0272592150189963,0.0120123662860878,-1.6222726550927015e-05,-4.078859683269315e-05,0.903021861899299,0.429594593780039,begin_weld
477,1731012327.0700755,4608312,1731012327,69268245,,-0.0295085620988114,0.0267561123916099,0.0120006873415696,-3.071040193761574e-05,3.819508498176248e-05,0.9029868463824536,0.4296681892557071,begin_weld
478,1731012327.1312246,4608313,1731012327,130232272,,-0.0294114693876851,0.0259282530672706,0.012012107657359,5.041580845555981e-07,0.0001514870225032,0.9030124932819026,0.4296142619004049,begin_weld
479,1731012327.1912732,4608314,1731012327,190233196,,-0.0287052036028294,0.0260777261920175,0.0120322728138053,-1.903420075936776e-05,-3.579926123969105e-05,0.9030882769480468,0.4294549596815943,begin_weld
480,1731012327.2510068,4608315,1731012327,250234852,,-0.0280316084714761,0.0263687124496621,0.0119862404998131,2.6626781028363917e-05,-6.601984584448069e-05,0.9030517903549894,0.4295316738833619,begin_weld
481,1731012327.3109434,4608316,1731012327,310233594,,-0.027749010034024,0.0258675832753958,0.0119859083048283,-2.7250425583575994e-05,-2.078353588176446e-05,0.9030172206127244,0.4296043506557269,begin_weld
482,1731012327.3709152,4608317,1731012327,370233321,,-0.0277666433678181,0.0249700469125548,0.0119882142142528,5.653842142808936e-05,0.0001922092514043,0.903031122816179,0.4295750820105394,begin_weld
483,1731012327.4303474,4608318,1731012327,429267357,,-0.0271370464850949,0.024938849552585,0.0120444124075512,-9.832780175074594e-06,4.770085821875064e-05,0.9030766519096624,0.4294794039340875,begin_weld
484,1731012327.4909532,4608319,1731012327,490236609,,-0.0263814554498721,0.0252961269690484,0.0119908866178745,6.277090810878e-06,-0.0001141795832595,0.90308911229163,0.429453189747074,begin_weld
485,1731012327.5504527,4608320,1731012327,549250671,,-0.0260478867882911,0.0249207519671337,0.0119820912608089,-9.780304702904477e-06,2.343236087001398e-05,0.903034075344332,0.4295689212714034,begin_weld
486,1731012327.61075,4608321,1731012327,610232033,,-0.0260672718485063,0.0239803659181818,0.0120130991972913,1.5667197819335566e-05,0.0001747281115346,0.9029985063550772,0.4296436508842245,begin_weld
487,1731012327.6707606,4608322,1731012327,670235959,,-0.0255287115299287,0.0238172538444142,0.0120540045343098,-5.177967113630254e-05,-1.8255954249010397e-05,0.9030260073579972,0.4295858785163453,begin_weld
488,1731012327.731164,4608323,1731012327,730233155,,-0.0247446349138637,0.0241913636105558,0.0119947058147159,-1.54484987460405e-05,-0.0001528438516609,0.9030477082780428,0.4295402344063661,begin_weld
489,1731012327.7906945,4608324,1731012327,790234241,,-0.0244088145532549,0.0238581127812635,0.0119609104525012,-1.5173179681538423e-05,-8.822268073128263e-05,0.9030063142771352,0.4296272667815169,begin_weld
490,1731012327.851053,4608325,1731012327,850236671,,-0.0244776315809225,0.022872571418342,0.012004225750315,2.285919265182901e-06,0.0001291098464329,0.902975158302177,0.429692735352345,begin_weld
491,1731012327.9103062,4608326,1731012327,909271055,,-0.0240828585970165,0.0225861996975819,0.0120261093998579,1.4514053292699184e-05,0.00010145450081,0.9030277653545072,0.429582174321947,begin_weld
492,1731012327.9709888,4608327,1731012327,970235797,,-0.0231547828218174,0.0230808738629157,0.0119842393473604,2.300380840116744e-06,-0.0002127315077622,0.9030931059941266,0.4294447538926225,begin_weld
493,1731012328.030213,4608328,1731012328,29255354,,-0.0227483504655047,0.02283529737554,0.0119572296044012,-7.27225897396839e-06,-0.0001368621640123,0.9030421084871106,0.4295520125840594,begin_weld
494,1731012328.091258,4608329,1731012328,90233094,,-0.0228835803075637,0.0218248166190072,0.0119865995359486,5.187031417070684e-05,0.0001072242674304,0.9030008791669232,0.4296386831236114,begin_weld
495,1731012328.1508908,4608330,1731012328,150241107,,-0.0225684247506223,0.021344578330316,0.0120337476071851,-2.147580310750514e-05,4.620277159817246e-05,0.902965102032997,0.4297138837815615,begin_weld
496,1731012328.2112389,4608331,1731012328,210232441,,-0.0216420418062884,0.021801898231519,0.0119916060866867,-2.6028087916037394e-05,-0.0001995532316595,0.9030790411029604,0.4294743356960971,begin_weld
497,1731012328.270238,4608332,1731012328,269241223,,-0.0212065701636046,0.02158388125341,0.0119665447491851,-2.3557768770193824e-05,-9.187775715378296e-05,0.9030357088256052,0.4295654776507842,begin_weld
498,1731012328.3310082,4608333,1731012328,330231994,,-0.0213708726395505,0.0205719284737819,0.0119972860972896,3.3711245824970646e-05,0.0001395392174382,0.9029866518764672,0.4296685768418331,begin_weld
499,1731012328.390223,4608334,1731012328,389269996,,-0.0211755412833597,0.0200463922699183,0.0120144701352706,2.0899928999734505e-05,0.0001370139777311,0.902980543355874,0.4296814158316526,begin_weld
500,1731012328.4508748,4608335,1731012328,450237451,,-0.0201971528563449,0.0205084732338433,0.0119836120146926,6.165348719432228e-06,-0.0001855045904838,0.9031037817201016,0.4294223154342197,begin_weld
501,1731012328.509944,4608336,1731012328,509246751,,-0.0196576456842515,0.020412593117425,0.0119566579750933,4.748742544675317e-06,-0.000127490412006,0.90308275411787,0.4294665562515054,begin_weld
502,1731012328.5710757,4608337,1731012328,570233166,,-0.0198527743480645,0.0193509494750009,0.0120077943258905,1.802805345932535e-05,0.0001278326412316,0.9029952244748412,0.4296505648889995,begin_weld
503,1731012328.6308317,4608338,1731012328,630235378,,-0.0197314393825524,0.0187506192904174,0.0120259152638097,-8.543793696638768e-06,0.0001546311252751,0.9029939795897288,0.4296531727346172,begin_weld
504,1731012328.6912663,4608339,1731012328,690232427,,-0.0187451585665364,0.0191429380405085,0.0119958567604287,-2.9360782627512496e-05,-0.0001591220041544,0.9031108732668048,0.4294074107481164,begin_weld
505,1731012328.7508483,4608340,1731012328,750237569,,-0.0181695957749082,0.0190906440300241,0.0119602370927885,-4.822101125022623e-06,-0.0001483244870523,0.9030876782437082,0.4294561949500583,begin_weld
506,1731012328.811021,4608341,1731012328,810233114,,-0.018359098431161,0.0180437488935494,0.0120276894519102,-8.335281462434564e-06,9.938729849830598e-05,0.9030026429404936,0.4296349809956957,begin_weld
507,1731012328.870165,4608342,1731012328,869261089,,-0.0184367564099325,0.0173365672174066,0.0120220959596613,1.1530000299120134e-05,0.0001671671973079,0.9029469589453184,0.4297519764394213,begin_weld
508,1731012328.92976,4608343,1731012328,929244403,,-0.0173990130701019,0.0177396647289218,0.0119920276566783,-2.858461585023542e-06,-0.000106303114268,0.9031203720855056,0.429387449997802,begin_weld
509,1731012328.9899073,4608344,1731012328,989249623,,-0.0167389678003045,0.0177431938423885,0.0119661053342009,-1.4664959738018423e-05,-0.0001588543361797,0.9030778860881036,0.4294767819206079,begin_weld
510,1731012329.0507402,4608345,1731012329,50233577,,-0.0169559965128821,0.0167433674328191,0.0119894372118766,6.55013529390691e-05,0.0001383035952812,0.9030327536848728,0.4295716731280175,begin_weld
511,1731012329.111184,4608346,1731012329,110249492,,-0.0170799430346803,0.0159287691827352,0.0120207748033007,7.794867319099322e-06,0.0001972430660934,0.902931306149253,0.4297848501401798,begin_weld
512,1731012329.1711056,4608347,1731012329,170232574,,-0.0160383471580879,0.0162931641406487,0.0120109249977409,-1.750026265246328e-05,-7.0093328193796e-05,0.9031136652089716,0.4294015632173268,begin_weld
513,1731012329.230979,4608348,1731012329,230232831,,-0.0152986335702225,0.0164364394851611,0.011968358099322,-2.529681022213442e-05,-0.0002239095077944,0.9031115643971244,0.4294059285533703,begin_weld
514,1731012329.2910411,4608349,1731012329,290232506,,-0.0154976572302015,0.015326212276146,0.0120412836144216,-4.738163720723936e-05,0.0001023320009627,0.9029731416315386,0.4296969778520804,begin_weld
515,1731012329.3503585,4608350,1731012329,349326754,,-0.0156942834582372,0.0145560581406762,0.0120107363653383,4.1307502264868926e-05,0.0002544357040727,0.9029634732024728,0.4297172321635357,begin_weld
516,1731012329.411067,4608351,1731012329,410232703,,-0.0147196701681387,0.0148442986838424,0.0120164485502568,-8.538184996179708e-06,-3.366985699411063e-05,0.9031008946451632,0.4294284257993946,begin_weld
517,1731012329.4702644,4608352,1731012329,469246798,,-0.0139342156809523,0.0150252928482969,0.011982865756822,-2.5248077816503373e-05,-0.0002201102481971,0.9030958138544884,0.4294390549455329,begin_weld
518,1731012329.5308082,4608353,1731012329,530231758,,-0.0140925513422723,0.0140482861037095,0.0120106082263619,1.2911030793455192e-05,8.561972442956453e-05,0.9030139484129558,0.4296112213085357,begin_weld
519,1731012329.590815,4608354,1731012329,590238853,,-0.0142734124193879,0.0131801834578308,0.0120142776666244,3.492345873721937e-05,0.0002517900352722,0.9029725610879608,0.4296981374225155,begin_weld
520,1731012329.65105,4608355,1731012329,650234631,,-0.013399052906143,0.0134039093294307,0.0120152716151901,1.1902206397516412e-05,-3.577584545991988e-06,0.9030918708425664,0.4294474038384817,begin_weld
521,1731012329.7108505,4608356,1731012329,710233143,,-0.012580138120556,0.0136075715849036,0.011984129389193,-1.28487962959798e-05,-0.0002131919073655,0.9030801169575344,0.4294720674736426,begin_weld
522,1731012329.770827,4608357,1731012329,770231187,,-0.0126171925218979,0.0127508104562043,0.0120241365140731,-3.531132929185844e-05,1.5613799503194437e-05,0.9030063820532446,0.4296271319183986,begin_weld
523,1731012329.8300743,4608358,1731012329,829295839,,-0.0127748365243165,0.0118717561900119,0.0120306494692127,-2.2308414598709595e-05,0.0001934091439587,0.9029911322213282,0.4296591407440105,begin_weld
524,1731012329.8909807,4608359,1731012329,890238548,,-0.0120793141417967,0.0119558442403952,0.012021756582723,6.632334430398947e-06,3.285190158331742e-05,0.903088960545397,0.4294535227679465,begin_weld
525,1731012329.9505994,4608360,1731012329,949281178,,-0.011297003826817,0.0121076798009197,0.0120007797778953,-1.9251120444177576e-05,-0.0001412940619096,0.9030359371902428,0.4295649843834135,begin_weld
526,1731012330.0113854,4608361,1731012330,10232577,,-0.011270683506821,0.011445590883828,0.0119640772315277,7.762942904860499e-05,4.686181844283737e-05,0.9030474676193988,0.4295407582568067,begin_weld
527,1731012330.071053,4608362,1731012330,70238767,,-0.0114503612447796,0.0104654093283542,0.0120168084674595,2.1771591819941343e-05,0.000249161523895,0.9029881647382756,0.4296653485995047,begin_weld
528,1731012330.1308832,4608363,1731012330,130232902,,-0.0107486407865559,0.0104845680941012,0.0120399354650385,-3.60050695653788e-05,2.6011277238376e-05,0.9030341627041912,0.4295687360786269,begin_weld
529,1731012330.1912873,4608364,1731012330,190232709,,-0.0098822539578412,0.0107689329418655,0.0120010207328783,-3.857002414692275e-05,-0.0002431636031568,0.903038745736056,0.4295590332925922,begin_weld
530,1731012330.2509086,4608365,1731012330,250233455,,-0.0098238293871011,0.0101056308084007,0.0119790180242534,1.9506687334844503e-05,2.863574651941881e-06,0.903028750213698,0.4295801158093513,begin_weld
531,1731012330.3112564,4608366,1731012330,310240274,,-0.0100384605401878,0.0091148897893876,0.0120134448499809,3.051038217883487e-05,0.0002727820981311,0.9030001418750568,0.4296401615685747,begin_weld
532,1731012330.3711045,4608367,1731012330,370259816,,-0.0094461770999513,0.0090431444602902,0.0120320556297401,-1.1844104987751922e-05,5.351669828043223e-05,0.9030217405935086,0.4295948475146673,begin_weld
533,1731012330.4303784,4608368,1731012330,429249305,,-0.0085655525677226,0.0093542448156955,0.0119986554916018,-3.0372958549032293e-05,-0.0002492323223071,0.903030285474266,0.4295768155720219,begin_weld
534,1731012330.490717,4608369,1731012330,490232488,,-0.0083789474756421,0.0088495497386573,0.011955313471105,3.101366561214392e-05,-7.311387888877319e-05,0.9030463341941688,0.4295431433406742,begin_weld
535,1731012330.5511928,4608370,1731012330,550240868,,-0.0086054174372602,0.0078212428250437,0.0119985713298318,3.5150280474917075e-05,0.0002253830153567,0.9030096999782262,0.4296200992879499,begin_weld
536,1731012330.6110277,4608371,1731012330,610232628,,-0.008157732082212,0.0075921378164823,0.0120281423601022,-7.068831431380301e-06,9.071400858343626e-05,0.9030032825642622,0.4296336385796246,begin_weld
537,1731012330.6712418,4608372,1731012330,670239851,,-0.0072071096533502,0.0079436836307761,0.0120028433739833,-4.109295287065898e-05,-0.0002596906161702,0.9030312753435572,0.4295747276359981,begin_weld
538,1731012330.7308817,4608373,1731012330,730232350,,-0.0069276289865532,0.0075892949441262,0.0119381229493586,3.81553479945505e-05,-0.0001240742626047,0.9030791950152436,0.4294740395883862,begin_weld
539,1731012330.7909763,4608374,1731012330,790237694,,-0.0071627567986882,0.0064821989415709,0.0120146504367162,3.924894307122254e-06,0.0001943411167589,0.9030029459577464,0.4296343117207435,begin_weld
540,1731012330.850016,4608375,1731012330,849278098,,-0.0068849859774507,0.0061356336506329,0.0120204178234474,-2.0429933118768105e-06,0.0001278712476946,0.9030002014660112,0.4296401049682321,begin_weld
541,1731012330.9104748,4608376,1731012330,909253533,,-0.0059061428808922,0.00651146833436,0.0119928959599573,-7.228416381875245e-06,-0.0002037590041148,0.9030846675003806,0.4294625033175133,begin_weld
542,1731012330.9709196,4608377,1731012330,970232934,,-0.0054561710218531,0.0063131453405906,0.0119479508865712,8.562988421573646e-06,-0.0001835679421617,0.9030966446994324,0.429437325534371,begin_weld
543,1731012331.03116,4608378,1731012331,30235402,,-0.0057106611002474,0.0051741297377138,0.012012143258081,7.697998713790485e-06,0.0001795419452522,0.9030034151763332,0.4296333319067661,begin_weld
544,1731012331.0911,4608379,1731012331,90232295,,-0.0055371573652765,0.0047030161542543,0.0120293429180764,-1.5534549926783287e-05,0.0001351246883698,0.9029657281616013,0.4297125495788849,begin_weld
545,1731012331.1508677,4608380,1731012331,150238116,,-0.0045367974959918,0.0051090767120493,0.0119955004132787,-2.2943566986540936e-05,-0.0002000076415967,0.9030709915741026,0.4294912614336909,begin_weld
546,1731012331.211183,4608381,1731012331,210232838,,-0.0040389476446071,0.0049924354794312,0.0119323195117949,4.722390003232286e-06,-0.0002209750723242,0.9030988690833464,0.4294326301157113,begin_weld
547,1731012331.2698658,4608382,1731012331,269247909,,-0.0043240333554427,0.0038297908173025,0.0120056122131373,2.843014180876784e-05,0.0001994379835397,0.9030119996161698,0.4296152790176627,begin_weld
548,1731012331.330942,4608383,1731012331,330236803,,-0.0042226166047325,0.003282691008969,0.0120235016566726,1.8074457449990315e-06,0.0001592462418888,0.9029639253443824,0.4297163298782491,begin_weld
549,1731012331.3901255,4608384,1731012331,389257733,,-0.0032021059793063,0.0036899477428077,0.0119950089939457,-1.09497697395289e-05,-0.0001558249257339,0.9031003558869972,0.4294295318157268,begin_weld
550,1731012331.450991,4608385,1731012331,450235518,,-0.0025971092787617,0.0036487847459788,0.0119520420094784,-1.918219394057014e-05,-0.0002299151193601,0.9031011690790732,0.4294277880844375,begin_weld
551,1731012331.5110145,4608386,1731012331,510233192,,-0.0028932801653984,0.0025001827022224,0.0119953005344169,5.940553030717255e-05,0.0002145671187717,0.903032303157032,0.4295725897759783,begin_weld
552,1731012331.5707989,4608387,1731012331,570233322,,-0.0029101909486925,0.0018236184086307,0.0120383022688204,-2.1715570515522718e-05,0.000154629428102,0.9029218048651672,0.4298048277034625,begin_weld
553,1731012331.631049,4608388,1731012331,630236622,,-0.00185318107392,0.002248060962067,0.0119947034270936,-1.701613278910165e-05,-0.0001244895096347,0.9030992483421062,0.4294318710304768,begin_weld
554,1731012331.6907897,4608389,1731012331,690231782,,-0.0011961496717389,0.002287385970434,0.0119590167968557,-2.388600508007645e-05,-0.0002406160055179,0.9031019158961772,0.4294262114008071,begin_weld
555,1731012331.75128,4608390,1731012331,750240239,,-0.0014464006476181,0.0011702425789557,0.0120150282634825,1.0871276727732798e-05,0.0001309533969003,0.9030170144544644,0.4296047652654343,begin_weld
556,1731012331.8107862,4608391,1731012331,810235001,,-0.0015870935628235,0.0004333313777696,0.0120108636281899,3.931072862428858e-05,0.0002157236786393,0.9029455160674444,0.4297549847665035,begin_weld
557,1731012331.871563,4608392,1731012331,870258752,,-0.0005194399906925,0.0008266789826694,0.0119925166645454,3.702893496314108e-06,-8.542765330763457e-05,0.903110037360762,0.429409190757077,begin_weld
558,1731012331.931197,4608393,1731012331,930231794,,0.0002093970112852,0.0009325779849421,0.0119585104601492,-2.716025869703261e-05,-0.0002643374947819,0.9030986257665452,0.4294331164763458,begin_weld
559,1731012331.9911008,4608394,1731012331,990234826,,-8.403515224075786e-06,-0.0002094683601914,0.0120426448092745,-4.442541002460957e-05,0.0001136967000541,0.9029912283137426,0.4296589655620859,begin_weld
560,1731012332.051212,4608395,1731012332,50235899,,-0.0002221823870157,-0.0009906055885325,0.0120173362526577,3.217386317412503e-05,0.0002544245050526,0.9029393897874984,0.4297678357010835,begin_weld
561,1731012332.1111555,4608396,1731012332,110238199,,0.0008308365531802,-0.0006180333306042,0.0120062804419948,-4.395106384059143e-06,-5.172623856271866e-05,0.9031070009855928,0.4294155820133774,begin_weld
562,1731012332.170948,4608397,1731012332,170233406,,0.0016101826454876,-0.000419117078791,0.0119616097434501,-2.3915227343267432e-05,-0.0002871051031867,0.9031113465714604,0.4294063491526476,begin_weld
563,1731012332.2307928,4608398,1731012332,230234964,,0.0013940969188318,-0.0015258288058612,0.0120209134885319,-6.833549101873748e-06,9.15415366110632e-05,0.903001698577394,0.429636967613113,begin_weld
564,1731012332.2913127,4608399,1731012332,290233539,,0.001177791484213,-0.0023777853036819,0.0120193453370029,2.770373818271422e-05,0.0002631138997826,0.902946059807286,0.4297538168324697,begin_weld
565,1731012332.3506918,4608400,1731012332,349259370,,0.0021235445411354,-0.0020634787996891,0.0120018623188995,2.507973591033463e-05,-4.70944125411832e-06,0.9030981938643116,0.4294341062233487,begin_weld
566,1731012332.4111006,4608401,1731012332,410231587,,0.0029749635575198,-0.0018180519087165,0.0119691030007329,-1.37321381449955e-05,-0.000285479114318,0.903101833784778,0.4294263570481848,begin_weld
567,1731012332.4712152,4608402,1731012332,470235206,,0.0028325610644508,-0.0028513752384509,0.0120279368055754,-2.2252457038986297e-05,5.993590692966198e-05,0.9030100953665596,0.429619324028368,begin_weld
568,1731012332.531139,4608403,1731012332,530233496,,0.0025965182518982,-0.0037493021122115,0.0120243967610493,2.1222455876291223e-05,0.0002633514824008,0.9029572103387208,0.4297303881422853,begin_weld
569,1731012332.5909894,4608404,1731012332,590237261,,0.003446289345603,-0.0035469517853277,0.0120140305849436,-1.760896077733737e-07,-8.676180419502861e-06,0.9030649245702153,0.4295040650979737,begin_weld
570,1731012332.6511023,4608405,1731012332,650233600,,0.0042978826805844,-0.0033011597023091,0.0119838031825241,-2.2985911458599e-05,-0.0002474184036606,0.9030608230768888,0.4295126169037105,begin_weld
571,1731012332.71131,4608406,1731012332,710236002,,0.0042146890097688,-0.0041570653920394,0.0119823883490736,4.221704553376594e-05,6.040202434283964e-05,0.9030089119182824,0.4296218099276109,begin_weld
572,1731012332.7709196,4608407,1731012332,770234008,,0.0040276660843328,-0.0051167792722658,0.0120313459332765,3.3614844127873583e-06,0.0002887866091372,0.9029759584785204,0.4296909761686787,begin_weld
573,1731012332.830351,4608408,1731012332,829249754,,0.0047899305437449,-0.0049610018964193,0.0120295213478799,-7.048373676854799e-06,2.067129572047142e-05,0.9030555268243668,0.4295238235476389,begin_weld
574,1731012332.891379,4608409,1731012332,890232459,,0.0056663531832339,-0.0046733668867292,0.0119868859824735,-1.3774510286665749e-05,-0.0002532011843351,0.9030695004736748,0.429494369012739,begin_weld
575,1731012332.9509282,4608410,1731012332,950241962,,0.0056559168641391,-0.0054386069509812,0.0119748422193421,5.21426610556017e-05,2.371224599308243e-05,0.9030607363305132,0.4295128673474911,begin_weld
576,1731012333.0112183,4608411,1731012333,10231671,,0.0054479321516892,-0.0064796132023897,0.012043137977349,-2.5099406097135643e-05,0.0002614230407769,0.9029671615628548,0.4297094787960057,begin_weld
577,1731012333.0708623,4608412,1731012333,70241298,,0.0061076318995303,-0.0063820450100701,0.0120032260424007,4.365257238225e-05,7.108356270190665e-05,0.9030645369264172,0.4295048721347128,begin_weld
578,1731012333.1310394,4608413,1731012333,130233059,,0.0069859974520375,-0.0061183316758678,0.0119836484800534,-3.5558745856841474e-06,-0.000224045076871,0.9030426537005184,0.4295508298079343,begin_weld
579,1731012333.1908696,4608414,1731012333,190235448,,0.0071139056072231,-0.0067716979499854,0.0119995154046506,-3.018913049923337e-05,-4.38472649267146e-05,0.9029984959638522,0.4296437052408129,begin_weld
580,1731012333.250841,4608415,1731012333,250237568,,0.0069101987967633,-0.007759449816713,0.0120207991634012,-1.4226726958285234e-05,0.0002184085017792,0.9029666750386988,0.4297105256621994,begin_weld
581,1731012333.3103378,4608416,1731012333,309251593,,0.0073698178597462,-0.0078717851822756,0.0120162126335632,1.1131424838350208e-05,7.178166476586246e-05,0.9030085185741928,0.4296226368639412,begin_weld
582,1731012333.3712618,4608417,1731012333,370232334,,0.0083170495946033,-0.0075420621331513,0.01199099225344,-2.3096548161885065e-05,-0.0002683006153814,0.9030204640632016,0.4295974499044535,begin_weld
583,1731012333.4308488,4608418,1731012333,430235330,,0.0085541546864849,-0.0080315130706908,0.0119624906786108,1.1220109344929344e-05,-9.531485369026204e-05,0.9030610738371202,0.4295121508285129,begin_weld
584,1731012333.4907286,4608419,1731012333,490234634,,0.0082854507074861,-0.0091206140443025,0.0120207411202377,-1.785664146536662e-05,0.0002136995763225,0.9029774923527344,0.4296877963335697,begin_weld
585,1731012333.5509863,4608420,1731012333,550237306,,0.0087403670336099,-0.0092588356190174,0.012011011740597,2.435506443908407e-05,7.915548992073321e-05,0.903022446007639,0.4295933602229206,begin_weld
586,1731012333.610748,4608421,1731012333,610232044,,0.0096862949900256,-0.0089491328225154,0.0119982722700908,-2.6284588447679667e-05,-0.000239766537561,0.9030358157068458,0.4295651957174834,begin_weld
587,1731012333.6709273,4608422,1731012333,670238052,,0.0099570045820141,-0.009333057633221,0.0119448112914666,3.0064390835404238e-05,-0.0001197388427221,0.9030665661096776,0.4295005959642164,begin_weld
588,1731012333.7313457,4608423,1731012333,730236549,,0.0097262696554854,-0.010437447791947,0.012019992744785,-1.0443505367359097e-05,0.0002040024252614,0.9029926571252448,0.4296559314752142,begin_weld
589,1731012333.790387,4608424,1731012333,789246568,,0.010040241401963,-0.0107333813651201,0.012028868668713,-7.220042484311584e-06,0.000123155198523,0.9030008936977152,0.4296386513825262,begin_weld
590,1731012333.8513572,4608425,1731012333,850238925,,0.0110198321325105,-0.0103571166719529,0.0119951056728798,-2.1728165628820835e-05,-0.0002244074973693,0.9030553707079688,0.4295240931596912,begin_weld
591,1731012333.910861,4608426,1731012333,910235368,,0.0114105389280938,-0.0105996581158012,0.0119316632750572,4.198901543503392e-05,-0.0001559023890923,0.9031063194751664,0.4294169880842935,begin_weld
592,1731012333.971306,4608427,1731012333,970233121,,0.0111223918882321,-0.0117390239219599,0.0119924586925496,4.49894902639862e-05,0.0002170752754189,0.9030196545175744,0.4295991787809087,begin_weld
593,1731012334.0308597,4608428,1731012334,30234774,,0.0113966495827715,-0.012163227514021,0.0120380531230869,-3.504097969727162e-05,0.0001211122713592,0.9029858350894236,0.4296702988708945,begin_weld
594,1731012334.0909834,4608429,1731012334,90232967,,0.0123691584623532,-0.0117731189220228,0.0119959404476343,-2.1109909538835697e-05,-0.0002156133952657,0.9030637375864248,0.4295065062623293,begin_weld
595,1731012334.1508968,4608430,1731012334,150238569,,0.0128391053412844,-0.0119137698479734,0.0119321913438987,2.2228704429109128e-05,-0.0001995179766147,0.9031018803008362,0.42942630740973,begin_weld
596,1731012334.2101734,4608431,1731012334,209251131,,0.0126072785526717,-0.013055769997385,0.0120225085211599,-1.9682892965777973e-05,0.0001449062712234,0.9029981207820036,0.4296444721847662,begin_weld
597,1731012334.2713428,4608432,1731012334,270256204,,0.0126761179803775,-0.0135850331790897,0.0120123709259052,1.608105864969451e-05,0.0001630547307845,0.9029818809571912,0.4296785959500049,begin_weld
598,1731012334.3307786,4608433,1731012334,330232972,,0.0136866104044425,-0.0132046553880709,0.0119895679257192,1.2106333735448128e-05,-0.0001250370931746,0.9031052752631464,0.4294191961371068,begin_weld
599,1731012334.3911653,4608434,1731012334,390236926,,0.0142910044309105,-0.0132372038618652,0.0119438051363561,-1.5006728513241913e-05,-0.0002530914607692,0.903098905294557,0.4294325359998744,begin_weld
600,1731012334.4508815,4608435,1731012334,450235337,,0.0140372311273146,-0.0144341801164293,0.0120424665630192,-4.980708063203319e-05,0.000156869969869,0.902992494687382,0.4296562898984786,begin_weld
601,1731012334.5112064,4608436,1731012334,510234193,,0.0140220628866871,-0.0150109206637505,0.0120213789527677,-1.1016305395694764e-05,0.000158937388258,0.9029639557020368,0.4297162660645715,begin_weld
602,1731012334.5712614,4608437,1731012334,570236552,,0.0150704003638393,-0.0146303109809253,0.0120109436851212,-2.6786081108673584e-05,-0.0001295118164803,0.9031072588748428,0.4294150224162666,begin_weld
603,1731012334.6309571,4608438,1731012334,630234160,,0.0156954805854765,-0.0145953913530078,0.0119471955382348,-1.509518352751744e-05,-0.000239050781233,0.9031060954779844,0.4294174227221916,begin_weld
604,1731012334.6902142,4608439,1731012334,689244864,,0.01543500476926,-0.0157264407350759,0.0120117595624708,1.2339498960763608e-05,0.0001590487016802,0.9030170002068516,0.4296047856910658,begin_weld
605,1731012334.7502189,4608440,1731012334,749264064,,0.0153147980824818,-0.0164729187878699,0.0120235235758707,9.431656401380624e-07,0.000217107125726,0.9029363679181052,0.4297742062461014,begin_weld
606,1731012334.8111703,4608441,1731012334,810239649,,0.0163856642168771,-0.0160677552106003,0.0120060646249275,-1.4052680556330108e-06,-9.431127111590007e-05,0.9031181181067336,0.4293921935139965,begin_weld
607,1731012334.8708172,4608442,1731012334,870234373,,0.0170535064234058,-0.015990177042773,0.011941443376805,1.8085556649150297e-05,-0.0002101792672094,0.9030901223112208,0.4294510292006445,begin_weld
608,1731012334.9310477,4608443,1731012334,930232722,,0.0168670520348692,-0.01711430701811,0.0120345139230491,-3.310024687512377e-05,0.0001196339210657,0.9029779347900266,0.4296869021443834,begin_weld
609,1731012334.990871,4608444,1731012334,990233609,,0.0167200892664913,-0.0178875371939447,0.0120406943715004,-2.2396218564800234e-05,0.0002309692393995,0.9029377764644668,0.4297712391319648,begin_weld
610,1731012335.0507977,4608445,1731012335,50234342,,0.0177458670589284,-0.0174947575412408,0.0120131236105963,-1.8546425486425063e-05,-8.921250476728512e-05,0.90309802683391,0.4294344485784267,begin_weld
611,1731012335.1110556,4608446,1731012335,110233604,,0.0184659266929977,-0.0173513635875045,0.0119466351413132,-1.4388135467049696e-07,-0.0002648863646117,0.9030930574884384,0.4294448269002401,begin_weld
612,1731012335.17114,4608447,1731012335,170237503,,0.0182401339567631,-0.0184221102968813,0.0120048710422546,4.159497204202041e-05,0.0001254666622511,0.9030286392785264,0.4295803291245399,begin_weld
613,1731012335.230092,4608448,1731012335,229255322,,0.0180776889885707,-0.0193207212700443,0.0120555770871004,-4.658850451351728e-05,0.0002411477060294,0.9029163954311388,0.4298161496953489,begin_weld
614,1731012335.2911506,4608449,1731012335,290232145,,0.0190400335806716,-0.0189490738899057,0.0120015933641926,6.205162170479616e-06,-5.0364039675904287e-05,0.9031022573204048,0.429425558447269,begin_weld
615,1731012335.3509517,4608450,1731012335,350245600,,0.0198072792509949,-0.0187982100540073,0.0119644007882753,-2.70227985128242e-06,-0.0002353304351296,0.9030884288826612,0.429454577610404,begin_weld
616,1731012335.4108374,4608451,1731012335,410231568,,0.0196623911498547,-0.0198072135075015,0.0120343906698391,-2.6925317203442055e-05,7.717783976059945e-05,0.9030129510987486,0.4296133185395183,begin_weld
617,1731012335.471106,4608452,1731012335,470233816,,0.0193706356061318,-0.0206915697942152,0.0120136108464224,5.499117745144068e-05,0.0003179066298844,0.9029838159995764,0.4296744394936569,begin_weld
618,1731012335.5311944,4608453,1731012335,530232926,,0.0202902232862111,-0.0204495075733004,0.01200985488763,-8.918174350622263e-06,-5.0139125535120936e-05,0.9030789322082904,0.4294746088048376,begin_weld
619,1731012335.5908074,4608454,1731012335,590235376,,0.0210817020357919,-0.0203332386092671,0.0119820834564142,-1.9979273299928417e-05,-0.0002160235717454,0.9030672964089084,0.4294990233881215,begin_weld
620,1731012335.651227,4608455,1731012335,650236271,,0.0210341270582716,-0.0211955331118764,0.0120202834796299,-2.1614951721548436e-05,3.622255902460351e-05,0.903006875964794,0.4296260934592117,begin_weld
621,1731012335.7102222,4608456,1731012335,709269636,,0.0207311394477373,-0.0221016763763673,0.0120229476061041,-5.480035088119828e-06,0.0002446834059435,0.9029746953756624,0.429693657867125,begin_weld
622,1731012335.7708442,4608457,1731012335,770231792,,0.0214538192973507,-0.0220224794442387,0.0120024599468144,1.1257152055281504e-05,6.021497686350988e-06,0.9030464126119048,0.4295429856321571,begin_weld
623,1731012335.831184,4608458,1731012335,830238073,,0.0222750775134047,-0.021877465145173,0.011958830139479,1.7602621775539183e-05,-0.0002490616876026,0.9030288719082924,0.4295797878839978,begin_weld
624,1731012335.8909836,4608459,1731012335,890232285,,0.0222304136390996,-0.022701224027034,0.0120093164692109,1.2597788546466755e-05,3.662625323820249e-05,0.9030204420284096,0.4295975788789193,begin_weld
625,1731012335.95081,4608460,1731012335,950237190,,0.0219294351128116,-0.0236293327207567,0.0120276435482463,8.608448162900587e-06,0.0002706141546045,0.9029917389626873,0.4296578243893807,begin_weld
626,1731012336.0107803,4608461,1731012336,10231695,,0.0226223918977101,-0.023553241698075,0.0119944510931851,8.985556695538869e-06,-5.026434249440829e-05,0.9030425855082828,0.4295510285766657,begin_weld
627,1731012336.0698774,4608462,1731012336,69247130,,0.0234339882664971,-0.0234481106985282,0.011958758631301,1.761992976307079e-05,-0.0002531803809267,0.9030305222947128,0.4295763161457707,begin_weld
628,1731012336.130064,4608463,1731012336,129254834,,0.0235254459515138,-0.0241904278052597,0.0120133212738325,-1.9618000041112957e-05,4.033832530542894e-06,0.903012268852107,0.4296147598738112,begin_weld
629,1731012336.1899748,4608464,1731012336,189256348,,0.0231282982713329,-0.0251635838674028,0.0120383734358047,-1.0085047333379836e-05,0.0002766856201276,0.902972620067003,0.4296979994748538,begin_weld
630,1731012336.250753,4608465,1731012336,250237457,,0.0236352316256913,-0.025169230019883,0.0119599078306141,7.44670101700655e-05,6.315626707838394e-06,0.9030406127951406,0.4295551723089296,begin_weld
631,1731012336.310809,4608466,1731012336,310237893,,0.0245716708886234,-0.0250799607774515,0.0119783339967423,-1.772664338557793e-05,-0.0002833661425104,0.9030226033017472,0.4295929437450419,begin_weld
632,1731012336.3710718,4608467,1731012336,370233070,,0.0246734520454335,-0.0257535906896826,0.0119995024061537,-3.7357989876285752e-06,-2.541787691216176e-05,0.9030252088511314,0.429587559781875,begin_weld
633,1731012336.4310014,4608468,1731012336,430234746,,0.0243179309924455,-0.0267103268637617,0.0120330626616768,-4.573394719400662e-06,0.0002837282441315,0.9029822797450312,0.4296776954227828,begin_weld
634,1731012336.490867,4608469,1731012336,490231822,,0.0246491558717657,-0.0268742817497719,0.0119946389865896,1.0404836037858775e-05,-5.676118031671772e-06,0.9030107637388264,0.4296179237780266,begin_weld
635,1731012336.5508318,4608470,1731012336,550239454,,0.0255679909753542,-0.0267456001555791,0.0119652701651626,1.7317150220529935e-05,-0.00024643689177,0.9030679491774516,0.4294976346121206,begin_weld
636,1731012336.610222,4608471,1731012336,609252119,,0.0258169525160474,-0.0273216996042818,0.0119895702446102,5.559758848905214e-06,-2.179195613380192e-05,0.9030666618320472,0.4295004118527973,begin_weld
637,1731012336.6702776,4608472,1731012336,669262660,,0.0253708057217179,-0.0283549655138732,0.0120552080588762,-4.88813817610607e-05,0.0002214754211108,0.9029536927212756,0.4297378007113882,begin_weld
638,1731012336.7313075,4608473,1731012336,730232852,,0.0256571753816871,-0.0285446978098242,0.0119933104143687,3.083239005762731e-05,7.698412106805183e-05,0.9030558455315582,0.4295231460283502,begin_weld
639,1731012336.7910695,4608474,1731012336,790234982,,0.0265910937487356,-0.0284430943400751,0.0119724851845228,-6.718076991468253e-06,-0.0002510325932753,0.9030450748443924,0.4295457248498585,begin_weld
640,1731012336.8510785,4608475,1731012336,850236321,,0.0269017541522832,-0.028944031320066,0.0119943109787237,-1.8164964125965676e-05,-9.28339405717134e-05,0.9030665965279082,0.4295005393330651,begin_weld
641,1731012336.9112847,4608476,1731012336,910234513,,0.0263696846984243,-0.0299974395367745,0.0120323201958044,-1.124949259150459e-05,0.00023778349105,0.9029622281611384,0.4297198597304209,begin_weld
642,1731012336.9709988,4608477,1731012336,970234245,,0.0265065700445565,-0.0303137129810403,0.0119964908956808,4.785104202421172e-05,0.0001521862020641,0.90304274225987,0.4295506724490271,begin_weld
643,1731012337.03082,4608478,1731012337,30234936,,0.0275102533887119,-0.0302115317852016,0.0119912273263559,-2.711868680966492e-05,-0.0001947259393375,0.9030602219091484,0.4295139077512912,begin_weld
644,1731012337.0907643,4608479,1731012337,90237736,,0.0279170127171895,-0.0305942782430689,0.011995121217796,-3.183758770894267e-05,-0.0001416955263592,0.9030810486628764,0.429470136860184,begin_weld
645,1731012337.1504395,4608480,1731012337,149259081,,0.0273712230299582,-0.0316496217892971,0.0120350007114505,-3.028133523467828e-05,0.0002005733222266,0.9029576359238616,0.4297295272379756,begin_weld
646,1731012337.211234,4608481,1731012337,210231978,,0.0273826552002069,-0.0320643689900361,0.0120231119177558,-5.26575427165579e-06,0.0001420702314269,0.9030356059714172,0.429565680817447,begin_weld
647,1731012337.2708824,4608482,1731012337,270233920,,0.0283198891815029,-0.0319358162354097,0.0119486814544161,7.251224842533656e-05,-0.0001143922698213,0.9031295151788972,0.4293682108273883,begin_weld
648,1731012337.3301368,4608483,1731012337,329243311,,0.0288150016110056,-0.0322797923147532,0.0119751652162973,1.2656328706219469e-05,-0.0001392934467042,0.9031043468613976,0.4294211442362866,begin_weld
649,1731012337.390756,4608484,1731012337,390234530,,0.0282870558227561,-0.0333924767148023,0.012045880849433,-4.98296018139339e-05,0.0001796111572347,0.9029326602666063,0.429782010187388,begin_weld
650,1731012337.4508767,4608485,1731012337,450234547,,0.028209309048257,-0.0337620425453405,0.0120011523141331,5.693029123749045e-06,4.12845188431281e-05,0.9030266446214292,0.4295845404189273,begin_weld
651,1731012337.5108464,4608486,1731012337,510233436,,0.0291602316823382,-0.0337388692890119,0.0119789772762228,5.314825634142834e-06,-0.0001281737995295,0.9031307888620382,0.429365533959891,begin_weld
652,1731012337.5700345,4608487,1731012337,569246328,,0.029639659430125,-0.0341288628964715,0.0119942635507647,-1.2928265528621316e-05,-8.977449017740558e-05,0.9030784142545412,0.4294756913736844,begin_weld
653,1731012337.6300962,4608488,1731012337,629261384,,0.0291036191754095,-0.0351375442160181,0.012029731448593,-1.4484708525737118e-05,0.000211632430005,0.9029532078603216,0.4297388269829276,begin_weld
654,1731012337.6913362,4608489,1731012337,690232035,,0.0289191586226204,-0.0356403748535429,0.0120088283115208,-7.004607658358719e-07,0.0001307634860004,0.9029940502422902,0.4296530322567787,begin_weld
655,1731012337.750788,4608490,1731012337,750239304,,0.0298443934911551,-0.0355826285188017,0.0119683977986846,3.383120412750287e-05,-7.321703955624398e-05,0.9031287437494788,0.4293698472275423,begin_weld
656,1731012337.8108754,4608491,1731012337,810232349,,0.0304342597936402,-0.0358966354781453,0.0119838218703696,-6.752696294606088e-06,-0.0001856295723061,0.9030525127416296,0.4295301208612642,begin_weld
657,1731012337.8702347,4608492,1731012337,869241093,,0.0299087886465385,-0.0368574210880415,0.0120192192377687,-5.629745993732518e-07,0.0001480562929722,0.9029656682752428,0.4297126714390223,begin_weld
658,1731012337.931105,4608493,1731012337,930231622,,0.0296707706873762,-0.0374085131055846,0.0120090502573273,-4.056280600725455e-06,7.008703067488225e-05,0.9029875058003832,0.4296668004858621,begin_weld
659,1731012337.9912624,4608494,1731012337,990234249,,0.0305213777856196,-0.0374235626419542,0.0119646374585686,4.955156264566271e-05,-2.7479980157791043e-05,0.9031502145641483,0.4293246868306387,begin_weld
660,1731012338.0509784,4608495,1731012338,50236798,,0.0311504770254034,-0.0377143316334351,0.0119771537577667,-2.468434380093232e-06,-0.0001924847801747,0.9030683617118316,0.4294967951203183,begin_weld
661,1731012338.110928,4608496,1731012338,110289117,,0.0306379320348612,-0.0387080021589439,0.0120449541225813,-3.849465586035654e-05,0.0001430227694248,0.9029616996787376,0.429721010628913,begin_weld
662,1731012338.171106,4608497,1731012338,170231825,,0.0303541480614299,-0.0391822112625357,0.0120020006580431,-8.072305016498346e-06,9.307819155396312e-06,0.9029916771804772,0.4296580393650178,begin_weld
663,1731012338.2307346,4608498,1731012338,230232841,,0.03112047199882,-0.0392845166232618,0.0119797682342732,1.4595587024057236e-05,-7.652968188429436e-05,0.9031268322997436,0.4293738682202349,begin_weld
664,1731012338.2912807,4608499,1731012338,290231728,,0.0317175155708301,-0.0396108405647173,0.0119642250605326,4.312113174473691e-05,-0.0001416731445561,0.9030611170235188,0.4295120452205303,begin_weld
665,1731012338.3511932,4608500,1731012338,350239120,,0.0312559911128229,-0.0405309703712343,0.0120201749887556,8.62392825297741e-06,0.000159588521669,0.902971443695714,0.4297005309831599,begin_weld
666,1731012338.4112792,4608501,1731012338,410231861,,0.0309705880525519,-0.0410889176349109,0.0120193856715929,-3.9062405777722336e-05,5.250492406029466e-05,0.9029577047757802,0.4297294254567824,begin_weld
667,1731012338.4711893,4608502,1731012338,470234449,,0.0316520399425265,-0.0412219054631918,0.0119959283016298,1.40770382433679e-05,4.789176088984776e-05,0.9031540585421212,0.4293166011780946,begin_weld
668,1731012338.530983,4608503,1731012338,530233812,,0.0323097891259734,-0.041501575153471,0.0119839134017039,2.0003069784279736e-05,-0.0001407090898119,0.9030658634852592,0.4295020675252358,begin_weld
669,1731012338.5910535,4608504,1731012338,590264707,,0.0318691743066298,-0.0423944168561102,0.012039680497726,-3.561084631783816e-05,0.0001214705355151,0.9029611355475706,0.4297222029025478,begin_weld
670,1731012338.6507452,4608505,1731012338,650234693,,0.0315001464671347,-0.0428319352030673,0.0119889638762023,4.832236826066705e-07,-5.197569783811671e-05,0.902995700406854,0.4296495808737958,begin_weld
671,1731012338.7106814,4608506,1731012338,710234392,,0.0320709313310391,-0.0430618137017083,0.0119696726660369,5.393617764028388e-05,-2.1028757764765228e-05,0.9031489355543416,0.4293273772492733,begin_weld
672,1731012338.7709885,4608507,1731012338,770232864,,0.0327305210424537,-0.0434457242647129,0.011973235433828,1.729317367475304e-05,-0.0001657894598563,0.903013483445286,0.4296121750262802,begin_weld
673,1731012338.8312132,4608508,1731012338,830234736,,0.0323778646819103,-0.0442754029539612,0.012025302536726,-1.786626802603374e-05,0.000114687576398,0.902951784030799,0.4297418553540644,begin_weld
674,1731012338.8914807,4608509,1731012338,890232629,,0.0320464024737248,-0.044755060522267,0.012003295063359,-2.183936394496562e-05,1.3753826365861284e-05,0.9029845842351264,0.4296729453521486,begin_weld
675,1731012338.9509614,4608510,1731012338,950236968,,0.0325068228258886,-0.0450381151852042,0.012010538785603,-4.030311836016074e-06,2.702961849702498e-05,0.9031339844889926,0.4293588304835389,begin_weld
676,1731012339.0109324,4608511,1731012339,10235321,,0.0331116082007103,-0.0453597546093326,0.0119583257025241,7.215855305978155e-05,-0.0001278510871177,0.9030406816996902,0.4295550088668523,begin_weld
677,1731012339.0701356,4608512,1731012339,69253390,,0.0329277542596659,-0.0460990947324355,0.0120134385436034,6.010580197451688e-07,9.059839665345036e-05,0.902993747092938,0.4296536797266191,begin_weld
678,1731012339.1308787,4608513,1731012339,130233450,,0.0323855435327469,-0.0467729262944645,0.0120275397544634,-4.750111622705889e-05,8.157626821717299e-05,0.9029306234016076,0.4297863194804375,begin_weld
679,1731012339.1908228,4608514,1731012339,190234359,,0.0329623281101406,-0.046947445990471,0.0119942203331867,1.3670228256942035e-05,-5.436036204258682e-05,0.9031539256537858,0.4293168799782182,begin_weld
680,1731012339.2512815,4608515,1731012339,250234634,,0.0329630973558537,-0.0471565579879345,0.0119933167195915,1.1114907931158328e-05,-6.904755732273087e-05,0.9029715398481036,0.4297003529591736,begin_weld
1422,1731012383.7712178,4609257,1731012383,770240175,,0.0324725930888221,-0.0469836239549645,0.0134631347353847,8.427847002856396e-05,7.499484742679998e-05,0.9030205719256924,0.4295972927660368,begin_weld
1423,1731012383.8311388,4609258,1731012383,830234240,,0.0325294377351783,-0.0461708995662842,0.0133735239650504,0.0002319083049139,3.208389110827173e-06,0.9031748457785328,0.4292728085508888,begin_weld
1424,1731012383.8910737,4609259,1731012383,890231477,,0.0330859371874003,-0.0457208786598417,0.0134616471905138,7.017767260859254e-05,3.3940341278639304e-05,0.9030942072364024,0.4294424836683038,begin_weld
1425,1731012383.950785,4609260,1731012383,950236047,,0.0328271105079798,-0.0453183546289119,0.0134396549252741,7.59377376857492e-05,-2.3155983505126235e-05,0.9030051824212496,0.4296296477405002,begin_weld
1426,1731012384.0108254,4609261,1731012384,10236062,,0.0321099578869282,-0.0450956702916492,0.0135044819428513,7.891267148209717e-06,0.0001851204596234,0.9030409778676556,0.4295543713663869,begin_weld
1427,1731012384.071238,4609262,1731012384,70232968,,0.0321264396336238,-0.0444572663332236,0.013500973496722,-1.4356397885035343e-05,-2.545274141783758e-05,0.9030423817690366,0.4295514589370607,begin_weld
1428,1731012384.1303418,4609263,1731012384,129341308,,0.0327268900836608,-0.0437046461270927,0.0134681927635963,3.979948295083847e-06,-0.0001593953383909,0.9030931721978032,0.4294446377671925,begin_weld
1429,1731012384.1900394,4609264,1731012384,189244303,,0.0325337037171955,-0.043423891350926,0.0134835036170309,-2.6876396795589636e-05,-7.640439976683003e-05,0.9029666426510412,0.4297106418271883,begin_weld
1430,1731012384.2511616,4609265,1731012384,250234665,,0.0316888940779173,-0.0432192205096663,0.0135087960629275,6.926358210872494e-06,0.0001733861789409,0.9030132308713812,0.4296127032112626,begin_weld
1431,1731012384.310951,4609266,1731012384,310234828,,0.0315560345284638,-0.0426328253275383,0.013501586266455,-4.117345509080152e-06,5.326892516764104e-06,0.9030163904556662,0.4296060969342632,begin_weld
1432,1731012384.3708313,4609267,1731012384,370232063,,0.0321595801792546,-0.0417550992734211,0.0134427096975355,5.249683393742123e-05,-0.0001681382315108,0.9031442913925272,0.4293371145134172,begin_weld
1433,1731012384.4308684,4609268,1731012384,430232871,,0.0320999937356278,-0.0415818400452854,0.013516403185195,-4.375568729441255e-05,4.4093463774945645e-05,0.9029788164376004,0.429685062814798,begin_weld
1434,1731012384.4917011,4609269,1731012384,490234621,,0.0312625141231217,-0.0413689866407065,0.0135179540916403,-9.21038086571572e-06,0.0001804791046536,0.9029764665145362,0.4296899676084889,begin_weld
1435,1731012384.55011,4609270,1731012384,549241744,,0.0309994724644395,-0.0407519145995017,0.0134965521919853,-2.2551372341153845e-05,-6.910447731715368e-05,0.9030101697484806,0.4296191662936223,begin_weld
1436,1731012384.6101685,4609271,1731012384,609252671,,0.0315612858321267,-0.0399383138754364,0.0134501901495359,4.657562172510116e-05,-0.0001203997471827,0.9031267289262304,0.4293740733132586,begin_weld
1437,1731012384.670174,4609272,1731012384,669264212,,0.0316161597938951,-0.039526628272622,0.0134587235646198,1.952861097386661e-05,-0.0001021415317573,0.9030307344655902,0.4295759325151696,begin_weld
1438,1731012384.7311273,4609273,1731012384,730233272,,0.0307022256650198,-0.0394560787142792,0.0135050685727161,6.622920764436739e-06,0.000108872217933,0.9029741969766988,0.4296947610772831,begin_weld
1439,1731012384.7914162,4609274,1731012384,790235225,,0.0303185578120072,-0.0390553031479857,0.0135173162950196,-2.1840311505456196e-05,7.438403764917581e-05,0.9029733806188864,0.4296964834435061,begin_weld
1440,1731012384.851109,4609275,1731012384,850233969,,0.0309487690945345,-0.0380281068801648,0.0134475992496353,3.2699768867952134e-05,-0.0001943806371314,0.9031463125739636,0.4293328536589595,begin_weld
1441,1731012384.911141,4609276,1731012384,910233199,,0.0309637238607395,-0.0378267427699169,0.0135138723998791,-1.9535782797540664e-05,9.407624515660556e-05,0.9030032826820004,0.4296336372230934,begin_weld
1442,1731012384.9712164,4609277,1731012384,970234513,,0.0300714556009942,-0.0377155450637337,0.0135249979238279,-1.730389130614512e-05,0.0001854810934616,0.9029158091414328,0.4298174111175712,begin_weld
1443,1731012385.0313008,4609278,1731012385,30243809,,0.0296874855948766,-0.0371638193835729,0.0134837257443587,1.8280811995299136e-05,4.192074974625049e-07,0.9030305245426092,0.429576386001298,begin_weld
1444,1731012385.09012,4609279,1731012385,89245708,,0.0302273836941542,-0.0362151977475404,0.0134502162843708,2.102953658829713e-05,-0.0002398071395364,0.9031196287832152,0.4293889590531668,begin_weld
1445,1731012385.1503532,4609280,1731012385,149263050,,0.0304195947610822,-0.0357726108854761,0.0135026377058242,-4.229179969433832e-05,-0.0001532677711806,0.9030565464149218,0.4295216510230285,begin_weld
1446,1731012385.2109156,4609281,1731012385,210232530,,0.0294701089805826,-0.0357705055299838,0.0135277594292304,-3.0567066113355385e-05,5.820132714878475e-05,0.902958840281658,0.4297270394511649,begin_weld
1447,1731012385.2711298,4609282,1731012385,270235362,,0.0288711856266456,-0.0354835174044989,0.0135016703852887,1.7282944560127222e-05,0.0001526489486505,0.9029966438635156,0.4296475736819949,begin_weld
1448,1731012385.331005,4609283,1731012385,330232551,,0.0293891217284218,-0.0344745707500048,0.0134431598160526,4.4328879424045846e-05,-0.0001487855878497,0.9031198791798796,0.4293884718153468,begin_weld
1449,1731012385.391012,4609284,1731012385,390233152,,0.0295533606688037,-0.0340445747211737,0.0134950555881251,-1.2232957508030143e-05,-1.5701158915224903e-05,0.9030423054002272,0.4295516200193766,begin_weld
1450,1731012385.451263,4609285,1731012385,450236688,,0.0286712835953555,-0.034011066459926,0.0135009075171204,6.078513204208248e-06,0.0001093143381153,0.9029341639080896,0.4297788776347973,begin_weld
1451,1731012385.511082,4609286,1731012385,510233811,,0.0280929204842681,-0.0337273693951143,0.0135125907161723,-1.0947105012179076e-05,0.0001287724098215,0.902981518556758,0.4296793693473756,begin_weld
1452,1731012385.5712566,4609287,1731012385,570236598,,0.028569265456134,-0.032712512578796,0.0134597707890667,1.3083988242841963e-05,-0.0001631215456355,0.9031106168156062,0.4294079494083755,begin_weld
1453,1731012385.6301448,4609288,1731012385,629246217,,0.0288222562165628,-0.0321090963144577,0.0134867791173672,-1.5163060347785736e-05,-0.0001720824236994,0.9030901400394602,0.4294510089884866,begin_weld
1454,1731012385.6910548,4609289,1731012385,690232856,,0.0278974395130618,-0.0321942414734961,0.0135087231340857,1.4056059373235407e-05,0.0001126198533182,0.9029751794948272,0.4296926952316977,begin_weld
1455,1731012385.7511947,4609290,1731012385,750236972,,0.0272087156779564,-0.0320404439474817,0.0135098772986122,-2.8949465391024825e-06,0.000193852406323,0.9029668149745472,0.4297102436149108,begin_weld
1456,1731012385.811009,4609291,1731012385,810232236,,0.0276016889042947,-0.0310338310603781,0.0134491630134164,3.7043789100898256e-05,-0.0001065834238913,0.9030906692239348,0.4294499160884738,begin_weld
1457,1731012385.8710396,4609292,1731012385,870232626,,0.0278848911232074,-0.0303999071837455,0.0134927612039411,-3.673496363774836e-05,-0.0001493718139087,0.9030512197850942,0.4295328518090989,begin_weld
1458,1731012385.930965,4609293,1731012385,930233298,,0.027050990269563,-0.030400213926422,0.0134885408798685,1.7346225067362286e-05,4.5505229493210153e-05,0.9029716623273696,0.4297000985130553,begin_weld
1459,1731012385.9908297,4609294,1731012385,990233201,,0.0262953569011882,-0.0303425214441912,0.0135078631553839,1.4235851871023812e-05,0.0002414781183977,0.9029897128585544,0.4296620997450023,begin_weld
1460,1731012386.0501485,4609295,1731012386,49243446,,0.0266117479485273,-0.0293861736346892,0.013459529506396,2.244449227057856e-05,-7.997568454861113e-05,0.9030757001993094,0.4294813998413221,begin_weld
1461,1731012386.1113167,4609296,1731012386,110239292,,0.0269308838009297,-0.0285937568317793,0.0134624852984238,1.6200839911736804e-05,-0.0002029085523308,0.9030895671455929,0.4294522002254011,begin_weld
1462,1731012386.1711638,4609297,1731012386,170232476,,0.0262057321958573,-0.028632136078673,0.0135017132232997,4.773338732570845e-07,5.41965330144587e-05,0.9030195450650772,0.4295994626311453,begin_weld
1463,1731012386.2309115,4609298,1731012386,230233685,,0.0253722167313999,-0.0286375268406229,0.0135061242872043,2.654163689982112e-05,0.0002882149025605,0.9030498340928668,0.42953569510875,begin_weld
1464,1731012386.290929,4609299,1731012386,290231685,,0.0256240313750098,-0.027810339662227,0.0135243918154671,-9.281087005008967e-05,-9.009001236676617e-05,0.9030210954170574,0.4295961877178495,begin_weld
1465,1731012386.351095,4609300,1731012386,350235347,,0.0259075975222796,-0.0268784574652634,0.0134474478732211,2.4328487628722382e-05,-0.0002499585928684,0.9030954236981936,0.4294398591470132,begin_weld
1466,1731012386.4112103,4609301,1731012386,410233143,,0.0251944683534185,-0.0269673772168981,0.0135005347731665,6.715931326812206e-06,9.002112172716091e-05,0.9030347809971464,0.4295674291197248,begin_weld
1467,1731012386.4708898,4609302,1731012386,470233756,,0.0243603371028999,-0.0269822704747854,0.0135067500793702,2.4471401279696304e-05,0.0002813456385773,0.9030424339779576,0.4295512573383391,begin_weld
1468,1731012386.5312214,4609303,1731012386,530235824,,0.0244437208472881,-0.0261701288644868,0.0134732408837573,2.0689434715431094e-05,-1.4736718751399827e-05,0.9030553677395728,0.4295241578206298,begin_weld
1469,1731012386.591257,4609304,1731012386,590276928,,0.024825485445831,-0.0252700601128342,0.01347269089739,-2.8361438072739547e-05,-0.0002654545192149,0.9030655653263197,0.4295026349760637,begin_weld
1470,1731012386.6511643,4609305,1731012386,650235774,,0.0241878816109237,-0.0252628349675221,0.013490719131767,1.3080502627341512e-06,4.097505666967898e-05,0.9030442931153716,0.4295474397445438,begin_weld
1471,1731012386.710864,4609306,1731012386,710235292,,0.0233314610146273,-0.0253635940087923,0.0135171984031661,-1.7035563138998375e-06,0.0002673211510866,0.9030378203298074,0.4295609660926964,begin_weld
1472,1731012386.7708285,4609307,1731012386,770232192,,0.0233025646110459,-0.0246821682948906,0.013526181259111,-7.024692457092979e-05,-1.4455152015797771e-05,0.903003720446557,0.4296327218870725,begin_weld
1473,1731012386.8307326,4609308,1731012386,830232880,,0.0236306704430248,-0.0236642061292549,0.0134483008102262,3.116381937554108e-05,-0.0002376507016267,0.9030894604653996,0.4294524059162713,begin_weld
1474,1731012386.8909972,4609309,1731012386,890232968,,0.023117286247022,-0.0235952011997101,0.0134815310879588,7.124105383163035e-06,2.176424222550654e-07,0.9030567296798762,0.4295212950821959,begin_weld
